ID;RS_ID;time;imLx_drone; imLy_drone; disparity_drone; imLx_pred_drone; imLy_pred_drone; n_frames_lost_drone; n_frames_tracking_drone; foundL_drone; posX_drone; posY_drone; posZ_drone; sposX_drone; sposY_drone; sposZ_drone; svelX_drone; svelY_drone; svelZ_drone; saccX_drone; saccY_drone; saccZ_drone; imLx_insect; imLy_insect; disparity_insect; imLx_pred_insect; imLy_pred_insect; n_frames_lost_insect; n_frames_tracking_insect; foundL_insect; posX_insect; posY_insect; posZ_insect; sposX_insect; sposY_insect; sposZ_insect; svelX_insect; svelY_insect; svelZ_insect; saccX_insect; saccY_insect; saccZ_insect; valid; posErrX; posErrY; posErrZ; velX; velY; velZ; accX; accY; accZ; hoverthrottle; autoThrottle; autoRoll; autoPitch; autoYaw; joyThrottle; joyRoll; joyPitch; joyYaw; joyArmSwitch; joyModeSwitch; joyTakeoffSwitch; throttleP; throttleI; throttleD; dt; dx; dy; dz; velx_sp; vely_sp; velz_sp;
0;1;2019/06/21 14:29:43;-1; -1; -1; -1; -1; 100; 0; 0; 0; 0; 0;0; 0; 0;0; 0; 0;0; 0; 0;-1; -1; -1; -1; -1; 100; 0; 0; 0; 0; 0;0; 0; 0;0; 0; 0;0; 0; 0;0; 0; 0; 0; 0; 0; 0; 0; 0; 0; 670; 228; 1024; 1024; 1024; 204; 1024; 1024; 1024; 0; 3; 0; 1300; 15; 9; 0; 0; 0; 0; 0; 0; 0; 
1;7;2019/06/21 14:29:43;-1; -1; -1; -1; -1; 100; 0; 0; 0; 0; 0;0; 0; 0;0; 0; 0;0; 0; 0;-1; -1; -1; -1; -1; 100; 0; 0; 0; 0; 0;0; 0; 0;0; 0; 0;0; 0; 0;0; 0; 0; 0; 0; 0; 0; 0; 0; 0; 670; 228; 1024; 1024; 1024; 204; 1024; 1024; 1024; 0; 3; 0; 1300; 15; 9; 0; 0; 0; 0; 0; 0; 0; 
2;8;2019/06/21 14:29:43;-1; -1; -1; -1; -1; 100; 0; 0; 0; 0; 0;0; 0; 0;0; 0; 0;0; 0; 0;-1; -1; -1; -1; -1; 100; 0; 0; 0; 0; 0;0; 0; 0;0; 0; 0;0; 0; 0;0; 0; 0; 0; 0; 0; 0; 0; 0; 0; 670; 228; 1024; 1024; 1024; 204; 1024; 1024; 1024; 0; 3; 0; 1300; 15; 9; 0; 0; 0; 0; 0; 0; 0; 
3;9;2019/06/21 14:29:43;-1; -1; -1; -1; -1; 100; 0; 0; 0; 0; 0;0; 0; 0;0; 0; 0;0; 0; 0;-1; -1; -1; -1; -1; 100; 0; 0; 0; 0; 0;0; 0; 0;0; 0; 0;0; 0; 0;0; 0; 0; 0; 0; 0; 0; 0; 0; 0; 670; 228; 1024; 1024; 1024; 204; 1024; 1024; 1024; 0; 3; 0; 1300; 15; 9; 0; 0; 0; 0; 0; 0; 0; 
4;10;2019/06/21 14:29:43;-1; -1; -1; -1; -1; 101; 0; 0; 0; 0; 0;0; 0; 0;0; 0; 0;0; 0; 0;-1; -1; -1; -1; -1; 100; 0; 0; 0; 0; 0;0; 0; 0;0; 0; 0;0; 0; 0;0; 0; 0; 0; 0; 0; 0; 0; 0; 0; 670; 228; 1024; 1024; 1024; 204; 1024; 1024; 1024; 0; 3; 0; 1300; 15; 9; 0; 0; 0; 0; 0; 0; 0; 
5;11;2019/06/21 14:29:43;-1; -1; -1; -1; -1; 102; 0; 0; 0; 0; 0;0; 0; 0;0; 0; 0;0; 0; 0;-1; -1; -1; -1; -1; 100; 0; 0; 0; 0; 0;0; 0; 0;0; 0; 0;0; 0; 0;0; 0; 0; 0; 0; 0; 0; 0; 0; 0; 670; 228; 1024; 1024; 1024; 204; 1024; 1024; 1024; 0; 3; 0; 1300; 15; 9; 0; 0; 0; 0; 0; 0; 0; 
6;12;2019/06/21 14:29:43;-1; -1; -1; -1; -1; 103; 0; 0; 0; 0; 0;0; 0; 0;0; 0; 0;0; 0; 0;-1; -1; -1; -1; -1; 100; 0; 0; 0; 0; 0;0; 0; 0;0; 0; 0;0; 0; 0;0; 0; 0; 0; 0; 0; 0; 0; 0; 0; 670; 228; 1024; 1024; 1024; 204; 1024; 1024; 1024; 0; 3; 0; 1300; 15; 9; 0; 0; 0; 0; 0; 0; 0; 
7;13;2019/06/21 14:29:43;-1; -1; -1; -1; -1; 104; 0; 0; 0; 0; 0;0; 0; 0;0; 0; 0;0; 0; 0;-1; -1; -1; -1; -1; 100; 0; 0; 0; 0; 0;0; 0; 0;0; 0; 0;0; 0; 0;0; 0; 0; 0; 0; 0; 0; 0; 0; 0; 670; 228; 1024; 1024; 1024; 204; 1024; 1024; 1024; 0; 3; 0; 1300; 15; 9; 0; 0; 0; 0; 0; 0; 0; 
8;14;2019/06/21 14:29:43;-1; -1; -1; -1; -1; 105; 0; 0; 0; 0; 0;0; 0; 0;0; 0; 0;0; 0; 0;-1; -1; -1; -1; -1; 100; 0; 0; 0; 0; 0;0; 0; 0;0; 0; 0;0; 0; 0;0; 0; 0; 0; 0; 0; 0; 0; 0; 0; 670; 228; 1024; 1024; 1024; 204; 1024; 1024; 1024; 0; 3; 0; 1300; 15; 9; 0; 0; 0; 0; 0; 0; 0; 
9;15;2019/06/21 14:29:43;-1; -1; -1; -1; -1; 106; 0; 0; 0; 0; 0;0; 0; 0;0; 0; 0;0; 0; 0;-1; -1; -1; -1; -1; 100; 0; 0; 0; 0; 0;0; 0; 0;0; 0; 0;0; 0; 0;0; 0; 0; 0; 0; 0; 0; 0; 0; 0; 670; 228; 1024; 1024; 1024; 204; 1024; 1024; 1024; 0; 3; 0; 1300; 15; 9; 0; 0; 0; 0; 0; 0; 0; 
10;16;2019/06/21 14:29:43;-1; -1; -1; -1; -1; 107; 0; 0; 0; 0; 0;0; 0; 0;0; 0; 0;0; 0; 0;-1; -1; -1; -1; -1; 100; 0; 0; 0; 0; 0;0; 0; 0;0; 0; 0;0; 0; 0;0; 0; 0; 0; 0; 0; 0; 0; 0; 0; 670; 228; 1024; 1024; 1024; 204; 1024; 1024; 1024; 0; 3; 0; 1300; 15; 9; 0; 0; 0; 0; 0; 0; 0; 
11;17;2019/06/21 14:29:43;-1; -1; -1; -1; -1; 108; 0; 0; 0; 0; 0;0; 0; 0;0; 0; 0;0; 0; 0;-1; -1; -1; -1; -1; 100; 0; 0; 0; 0; 0;0; 0; 0;0; 0; 0;0; 0; 0;0; 0; 0; 0; 0; 0; 0; 0; 0; 0; 670; 228; 1024; 1024; 1024; 204; 1024; 1024; 1024; 0; 3; 0; 1300; 15; 9; 0; 0; 0; 0; 0; 0; 0; 
12;18;2019/06/21 14:29:43;-1; -1; -1; -1; -1; 109; 0; 0; 0; 0; 0;0; 0; 0;0; 0; 0;0; 0; 0;-1; -1; -1; -1; -1; 100; 0; 0; 0; 0; 0;0; 0; 0;0; 0; 0;0; 0; 0;0; 0; 0; 0; 0; 0; 0; 0; 0; 0; 670; 228; 1024; 1024; 1024; 204; 1024; 1024; 1024; 0; 3; 0; 1300; 15; 9; 0; 0; 0; 0; 0; 0; 0; 
13;19;2019/06/21 14:29:43;-1; -1; -1; -1; -1; 110; 0; 0; 0; 0; 0;0; 0; 0;0; 0; 0;0; 0; 0;-1; -1; -1; -1; -1; 100; 0; 0; 0; 0; 0;0; 0; 0;0; 0; 0;0; 0; 0;0; 0; 0; 0; 0; 0; 0; 0; 0; 0; 670; 228; 1024; 1024; 1024; 204; 1024; 1024; 1024; 0; 3; 0; 1300; 15; 9; 0; 0; 0; 0; 0; 0; 0; 
14;20;2019/06/21 14:29:43;-1; -1; -1; -1; -1; 111; 0; 0; 0; 0; 0;0; 0; 0;0; 0; 0;0; 0; 0;-1; -1; -1; -1; -1; 100; 0; 0; 0; 0; 0;0; 0; 0;0; 0; 0;0; 0; 0;0; 0; 0; 0; 0; 0; 0; 0; 0; 0; 670; 228; 1024; 1024; 1024; 204; 1024; 1024; 1024; 0; 3; 0; 1300; 15; 9; 0; 0; 0; 0; 0; 0; 0; 
15;21;2019/06/21 14:29:43;-1; -1; -1; -1; -1; 112; 0; 0; 0; 0; 0;0; 0; 0;0; 0; 0;0; 0; 0;-1; -1; -1; -1; -1; 100; 0; 0; 0; 0; 0;0; 0; 0;0; 0; 0;0; 0; 0;0; 0; 0; 0; 0; 0; 0; 0; 0; 0; 670; 228; 1024; 1024; 1024; 204; 1024; 1024; 1024; 0; 3; 0; 1300; 15; 9; 0; 0; 0; 0; 0; 0; 0; 
16;22;2019/06/21 14:29:43;-1; -1; -1; -1; -1; 113; 0; 0; 0; 0; 0;0; 0; 0;0; 0; 0;0; 0; 0;-1; -1; -1; -1; -1; 100; 0; 0; 0; 0; 0;0; 0; 0;0; 0; 0;0; 0; 0;0; 0; 0; 0; 0; 0; 0; 0; 0; 0; 670; 228; 1024; 1024; 1024; 204; 1024; 1024; 1024; 0; 3; 0; 1300; 15; 9; 0; 0; 0; 0; 0; 0; 0; 
17;23;2019/06/21 14:29:43;-1; -1; -1; -1; -1; 114; 0; 0; 0; 0; 0;0; 0; 0;0; 0; 0;0; 0; 0;-1; -1; -1; -1; -1; 100; 0; 0; 0; 0; 0;0; 0; 0;0; 0; 0;0; 0; 0;0; 0; 0; 0; 0; 0; 0; 0; 0; 0; 670; 228; 1024; 1024; 1024; 204; 1024; 1024; 1024; 0; 3; 0; 1300; 15; 9; 0; 0; 0; 0; 0; 0; 0; 
18;24;2019/06/21 14:29:43;-1; -1; -1; -1; -1; 115; 0; 0; 0; 0; 0;0; 0; 0;0; 0; 0;0; 0; 0;-1; -1; -1; -1; -1; 100; 0; 0; 0; 0; 0;0; 0; 0;0; 0; 0;0; 0; 0;0; 0; 0; 0; 0; 0; 0; 0; 0; 0; 670; 228; 1024; 1024; 1024; 204; 1024; 1024; 1024; 0; 3; 0; 1300; 15; 9; 0; 0; 0; 0; 0; 0; 0; 
19;25;2019/06/21 14:29:43;-1; -1; -1; -1; -1; 116; 0; 0; 0; 0; 0;0; 0; 0;0; 0; 0;0; 0; 0;-1; -1; -1; -1; -1; 100; 0; 0; 0; 0; 0;0; 0; 0;0; 0; 0;0; 0; 0;0; 0; 0; 0; 0; 0; 0; 0; 0; 0; 670; 228; 1024; 1024; 1024; 204; 1024; 1024; 1024; 0; 3; 0; 1300; 15; 9; 0; 0; 0; 0; 0; 0; 0; 
20;26;2019/06/21 14:29:43;-1; -1; -1; -1; -1; 117; 0; 0; 0; 0; 0;0; 0; 0;0; 0; 0;0; 0; 0;-1; -1; -1; -1; -1; 100; 0; 0; 0; 0; 0;0; 0; 0;0; 0; 0;0; 0; 0;0; 0; 0; 0; 0; 0; 0; 0; 0; 0; 670; 228; 1024; 1024; 1024; 204; 1024; 1024; 1024; 0; 3; 0; 1300; 15; 9; 0; 0; 0; 0; 0; 0; 0; 
21;27;2019/06/21 14:29:43;-1; -1; -1; -1; -1; 118; 0; 0; 0; 0; 0;0; 0; 0;0; 0; 0;0; 0; 0;-1; -1; -1; -1; -1; 100; 0; 0; 0; 0; 0;0; 0; 0;0; 0; 0;0; 0; 0;0; 0; 0; 0; 0; 0; 0; 0; 0; 0; 670; 228; 1024; 1024; 1024; 204; 1024; 1024; 1024; 0; 3; 0; 1300; 15; 9; 0; 0; 0; 0; 0; 0; 0; 
22;29;2019/06/21 14:29:43;-1; -1; -1; -1; -1; 119; 0; 0; 0; 0; 0;0; 0; 0;0; 0; 0;0; 0; 0;-1; -1; -1; -1; -1; 100; 0; 0; 0; 0; 0;0; 0; 0;0; 0; 0;0; 0; 0;0; 0; 0; 0; 0; 0; 0; 0; 0; 0; 670; 228; 1024; 1024; 1024; 204; 1024; 1024; 1024; 0; 3; 0; 1300; 15; 9; 0; 0; 0; 0; 0; 0; 0; 
23;30;2019/06/21 14:29:43;-1; -1; -1; -1; -1; 120; 0; 0; 0; 0; 0;0; 0; 0;0; 0; 0;0; 0; 0;-1; -1; -1; -1; -1; 100; 0; 0; 0; 0; 0;0; 0; 0;0; 0; 0;0; 0; 0;0; 0; 0; 0; 0; 0; 0; 0; 0; 0; 670; 228; 1024; 1024; 1024; 204; 1024; 1024; 1024; 0; 3; 0; 1300; 15; 9; 0; 0; 0; 0; 0; 0; 0; 
24;31;2019/06/21 14:29:43;-1; -1; -1; -1; -1; 121; 0; 0; 0; 0; 0;0; 0; 0;0; 0; 0;0; 0; 0;-1; -1; -1; -1; -1; 100; 0; 0; 0; 0; 0;0; 0; 0;0; 0; 0;0; 0; 0;0; 0; 0; 0; 0; 0; 0; 0; 0; 0; 670; 228; 1024; 1024; 1024; 204; 1024; 1024; 1024; 0; 3; 0; 1300; 15; 9; 0; 0; 0; 0; 0; 0; 0; 
25;32;2019/06/21 14:29:43;-1; -1; -1; -1; -1; 122; 0; 0; 0; 0; 0;0; 0; 0;0; 0; 0;0; 0; 0;-1; -1; -1; -1; -1; 100; 0; 0; 0; 0; 0;0; 0; 0;0; 0; 0;0; 0; 0;0; 0; 0; 0; 0; 0; 0; 0; 0; 0; 670; 228; 1024; 1024; 1024; 204; 1024; 1024; 1024; 0; 3; 0; 1300; 15; 9; 0; 0; 0; 0; 0; 0; 0; 
26;33;2019/06/21 14:29:43;-1; -1; -1; -1; -1; 123; 0; 0; 0; 0; 0;0; 0; 0;0; 0; 0;0; 0; 0;-1; -1; -1; -1; -1; 100; 0; 0; 0; 0; 0;0; 0; 0;0; 0; 0;0; 0; 0;0; 0; 0; 0; 0; 0; 0; 0; 0; 0; 670; 228; 1024; 1024; 1024; 204; 1024; 1024; 1024; 0; 3; 0; 1300; 15; 9; 0; 0; 0; 0; 0; 0; 0; 
27;34;2019/06/21 14:29:43;-1; -1; -1; -1; -1; 124; 0; 0; 0; 0; 0;0; 0; 0;0; 0; 0;0; 0; 0;-1; -1; -1; -1; -1; 100; 0; 0; 0; 0; 0;0; 0; 0;0; 0; 0;0; 0; 0;0; 0; 0; 0; 0; 0; 0; 0; 0; 0; 670; 228; 1024; 1024; 1024; 204; 1024; 1024; 1024; 0; 3; 0; 1300; 15; 9; 0; 0; 0; 0; 0; 0; 0; 
28;35;2019/06/21 14:29:43;-1; -1; -1; -1; -1; 125; 0; 0; 0; 0; 0;0; 0; 0;0; 0; 0;0; 0; 0;-1; -1; -1; -1; -1; 100; 0; 0; 0; 0; 0;0; 0; 0;0; 0; 0;0; 0; 0;0; 0; 0; 0; 0; 0; 0; 0; 0; 0; 670; 228; 1024; 1024; 1024; 204; 1024; 1024; 1024; 0; 3; 0; 1300; 15; 9; 0; 0; 0; 0; 0; 0; 0; 
29;36;2019/06/21 14:29:43;-1; -1; -1; -1; -1; 126; 0; 0; 0; 0; 0;0; 0; 0;0; 0; 0;0; 0; 0;-1; -1; -1; -1; -1; 100; 0; 0; 0; 0; 0;0; 0; 0;0; 0; 0;0; 0; 0;0; 0; 0; 0; 0; 0; 0; 0; 0; 0; 670; 228; 1024; 1024; 1024; 204; 1024; 1024; 1024; 0; 3; 0; 1300; 15; 9; 0; 0; 0; 0; 0; 0; 0; 
30;37;2019/06/21 14:29:43;-1; -1; -1; -1; -1; 127; 0; 0; 0; 0; 0;0; 0; 0;0; 0; 0;0; 0; 0;-1; -1; -1; -1; -1; 100; 0; 0; 0; 0; 0;0; 0; 0;0; 0; 0;0; 0; 0;0; 0; 0; 0; 0; 0; 0; 0; 0; 0; 670; 228; 1024; 1024; 1024; 204; 1024; 1024; 1024; 0; 3; 0; 1300; 15; 9; 0; 0; 0; 0; 0; 0; 0; 
31;38;2019/06/21 14:29:43;-1; -1; -1; -1; -1; 128; 0; 0; 0; 0; 0;0; 0; 0;0; 0; 0;0; 0; 0;-1; -1; -1; -1; -1; 100; 0; 0; 0; 0; 0;0; 0; 0;0; 0; 0;0; 0; 0;0; 0; 0; 0; 0; 0; 0; 0; 0; 0; 670; 228; 1024; 1024; 1024; 204; 1024; 1024; 1024; 0; 3; 0; 1300; 15; 9; 0; 0; 0; 0; 0; 0; 0; 
32;39;2019/06/21 14:29:43;455.268; 360.049; 8.03667; -1; -1; 0; 1; 1; -0.199636; -2.05489; -1.80968;-0.199636; -2.05489; -1.80968;0; 0; 0;0; 0; 0;-1; -1; -1; -1; -1; 100; 0; 0; 0; 0; 0;0; 0; 0;0; 0; 0;0; 0; 0;1; -0.199636; -2.05489; -1.5; 0; 0; 0; -3.79308; -42.528; -3.79308; 670; 228; 1024; 1024; 1024; 204; 1024; 1024; 1024; 0; 3; 0; 1300; 15; 9; 0.650665; 0; 0; 0; -0.399272; -2.67135; -2.55; 
33;40;2019/06/21 14:29:43;455; 357.789; 8.02263; 455.268; 360.049; 0; 2; 1; -0.198317; -2.04669; -1.8205;-0.19924; -2.05243; -1.81293;0; 0; 0;0; 0; 0;-1; -1; -1; -1; -1; 100; 0; 0; 0; 0; 0;0; 0; 0;0; 0; 0;0; 0; 0;1; -0.19924; -2.05243; -1.5; 0; 0; 0; -3.78556; -42.4771; -3.78556; 670; 228; 1024; 1024; 1024; 204; 1024; 1024; 1024; 0; 3; 0; 1300; 15; 9; 0.016684; 0; 0; 0; -0.398481; -2.66816; -2.55; 
34;41;2019/06/21 14:29:43;455; 357.6; 7.99855; 455; 357.789; 0; 3; 1; -0.198914; -2.05186; -1.82662;-0.199142; -2.05226; -1.81704;0; 0; 0;0; 0; 0;-1; -1; -1; -1; -1; 100; 0; 0; 0; 0; 0;0; 0; 0;0; 0; 0;0; 0; 0;1; -0.199142; -2.05226; -1.5; 0; 0; 0; -3.7837; -42.4736; -3.7837; 670; 228; 1024; 1024; 1024; 204; 1024; 1024; 1024; 0; 3; 0; 1300; 15; 9; 0.016684; 0; 0; 0; -0.398285; -2.66794; -2.55; 
35;42;2019/06/21 14:29:43;455; 357.6; 7.9975; 455; 357.6; 0; 4; 1; -0.19894; -2.05213; -1.82686;-0.199082; -2.05222; -1.81998;0; 0; 0;0; 0; 0;-1; -1; -1; -1; -1; 100; 0; 0; 0; 0; 0;0; 0; 0;0; 0; 0;0; 0; 0;1; -0.199082; -2.05222; -1.5; 0; 0; 0; -3.78255; -42.4728; -3.78255; 670; 228; 1024; 1024; 1024; 204; 1024; 1024; 1024; 0; 3; 0; 1300; 15; 9; 0.016683; 0; 0; 0; -0.398163; -2.66789; -2.55; 
36;43;2019/06/21 14:29:43;455; 357.6; 8.00914; 455; 357.6; 0; 5; 1; -0.198651; -2.04915; -1.8242;-0.198952; -2.0513; -1.82125;0; 0; 0;0; 0; 0;-1; -1; -1; -1; -1; 100; 0; 0; 0; 0; 0;0; 0; 0;0; 0; 0;0; 0; 0;1; -0.198952; -2.0513; -1.5; 0; 0; 0; -3.7801; -42.4537; -3.7801; 670; 228; 1024; 1024; 1024; 204; 1024; 1024; 1024; 0; 3; 0; 1300; 15; 9; 0.016684; 0; 0; 0; -0.397905; -2.66669; -2.55; 
37;44;2019/06/21 14:29:43;455; 357.6; 8.01666; 455; 357.6; 0; 6; 1; -0.198464; -2.04723; -1.82249;-0.198806; -2.05008; -1.82162;0; 0; 0;0; 0; 0;-1; -1; -1; -1; -1; 100; 0; 0; 0; 0; 0;0; 0; 0;0; 0; 0;0; 0; 0;1; -0.198806; -2.05008; -1.5; 0; 0; 0; -3.77731; -42.4284; -3.77731; 670; 228; 1024; 1024; 1024; 204; 1024; 1024; 1024; 0; 3; 0; 1300; 15; 9; 0.016684; 0; 0; 0; -0.397612; -2.6651; -2.55; 
38;45;2019/06/21 14:29:43;455; 357.6; 8.00399; 455; 357.6; 0; 7; 1; -0.198779; -2.05047; -1.82538;-0.198798; -2.0502; -1.82275;0; 0; 0;0; 0; 0;-1; -1; -1; -1; -1; 100; 0; 0; 0; 0; 0;0; 0; 0;0; 0; 0;0; 0; 0;1; -0.198798; -2.0502; -1.5; 0; 0; 0; -3.77716; -42.4308; -3.77716; 670; 228; 1024; 1024; 1024; 204; 1024; 1024; 1024; 0; 3; 0; 1300; 15; 9; 0.016684; 0; 0; 0; -0.397596; -2.66525; -2.55; 
39;46;2019/06/21 14:29:43;455; 357.6; 8.00031; 455; 357.6; 0; 8; 1; -0.19887; -2.05141; -1.82622;-0.198819; -2.05056; -1.82379;0.00670528; 0.0356013; -0.121706;0.0267938; 0.14226; -0.486327;-1; -1; -1; -1; -1; 100; 0; 0; 0; 0; 0;0; 0; 0;0; 0; 0;0; 0; 0;1; -0.198819; -2.05056; -1.5; 0; 0; 0; -3.71387; -41.8716; -3.71387; 670; 228; 1024; 1024; 1024; 204; 1024; 1024; 1024; 0; 3; 0; 1300; 15; 9; 0.016683; 0; 0; 0; -0.397639; -2.66573; -2.55; 
40;47;2019/06/21 14:29:43;455; 357.6; 8.00125; 454.965; 357.283; 0; 9; 1; -0.198847; -2.05117; -1.826;-0.198828; -2.05074; -1.82445;0.00528073; 0.0274218; -0.102664;0.0371777; 0.194932; -0.702035;-1; -1; -1; -1; -1; 100; 0; 0; 0; 0; 0;0; 0; 0;0; 0; 0;0; 0; 0;1; -0.198828; -2.05074; -1.5; 0; 0; 0; -3.72756; -42.0056; -3.72756; 670; 228; 1024; 1024; 1024; 204; 1024; 1024; 1024; 0; 3; 0; 1300; 15; 9; 0.016684; 0; 0; 0; -0.397655; -2.66597; -2.55; 
41;48;2019/06/21 14:29:43;455; 357.6; 7.99897; 454.972; 357.337; 0; 10; 1; -0.198903; -2.05175; -1.82652;-0.19885; -2.05105; -1.82507;0.00409267; 0.0211489; -0.0819429;0.0386605; 0.201468; -0.748656;-1; -1; -1; -1; -1; 100; 0; 0; 0; 0; 0;0; 0; 0;0; 0; 0;0; 0; 0;1; -0.19885; -2.05105; -1.5; 0; 0; 0; -3.73928; -42.1118; -3.73928; 670; 228; 1024; 1024; 1024; 204; 1024; 1024; 1024; 0; 3; 0; 1300; 15; 9; 0.016684; 0; 0; 0; -0.397701; -2.66636; -2.55; 
42;49;2019/06/21 14:29:43;455; 357.6; 7.99802; 454.978; 357.392; 0; 11; 1; -0.198927; -2.052; -1.82674;-0.198873; -2.05133; -1.82557;0.00277142; 0.0125598; -0.0664476;0.0342706; 0.171068; -0.714711;-1; -1; -1; -1; -1; 100; 0; 0; 0; 0; 0;0; 0; 0;0; 0; 0;0; 0; 0;1; -0.198873; -2.05133; -1.5; 0; 0; 0; -3.75227; -42.2544; -3.75227; 670; 228; 1024; 1024; 1024; 204; 1024; 1024; 1024; 0; 3; 0; 1300; 15; 9; 0.016684; 0; 0; 0; -0.397747; -2.66673; -2.55; 
43;50;2019/06/21 14:29:43;455; 357.6; 8.01066; 454.983; 357.439; 0; 12; 1; -0.198613; -2.04876; -1.82386;-0.198795; -2.05056; -1.82506;0.00170578; 0.00560761; -0.0536018;0.0273785; 0.125048; -0.643015;-1; -1; -1; -1; -1; 100; 0; 0; 0; 0; 0;0; 0; 0;0; 0; 0;0; 0; 0;1; -0.198795; -2.05056; -1.5; 0; 0; 0; -3.76091; -42.3491; -3.76091; 670; 228; 1024; 1024; 1024; 204; 1024; 1024; 1024; 0; 3; 0; 1300; 15; 9; 0.016683; 0; 0; 0; -0.397591; -2.66573; -2.55; 
44;51;2019/06/21 14:29:43;455; 357.6; 8.00134; 454.987; 357.479; 0; 13; 1; -0.198844; -2.05115; -1.82598;-0.19881; -2.05074; -1.82534;0.000974704; 0.00120098; -0.0424988;0.020322; 0.0798281; -0.555631;-1; -1; -1; -1; -1; 100; 0; 0; 0; 0; 0;0; 0; 0;0; 0; 0;0; 0; 0;1; -0.19881; -2.05074; -1.5; 0; 0; 0; -3.76813; -42.4229; -3.76813; 670; 228; 1024; 1024; 1024; 204; 1024; 1024; 1024; 0; 3; 0; 1300; 15; 9; 0.016684; 0; 0; 0; -0.39762; -2.66596; -2.55; 
45;52;2019/06/21 14:29:43;455; 357.6; 8.00268; 454.99; 357.51; 0; 14; 1; -0.198811; -2.0508; -1.82568;-0.19881; -2.05076; -1.82544;0.000621322; -6.53852e-05; -0.0320867;-0.0121176; -0.0946229; 0.0247286;-1; -1; -1; -1; -1; 100; 0; 0; 0; 0; 0;0; 0; 0;0; 0; 0;0; 0; 0;1; -0.19881; -2.05076; -1.5; 0; 0; 0; -3.77149; -42.4435; -3.77149; 670; 228; 1024; 1024; 1024; 204; 1024; 1024; 1024; 0; 3; 0; 1300; 15; 9; 0.016684; 0; 0; 0; -0.397621; -2.66598; -2.55; 
46;53;2019/06/21 14:29:43;455; 357.6; 8.01725; 454.993; 357.534; 0; 15; 1; -0.19845; -2.04708; -1.82236;-0.198702; -2.04965; -1.82451;0.000873975; 0.00431653; -0.0194954;-0.0248796; -0.149101; 0.347174;-1; -1; -1; -1; -1; 100; 0; 0; 0; 0; 0;0; 0; 0;0; 0; 0;0; 0; 0;1; -0.198702; -2.04965; -1.5; 0; 0; 0; -3.76704; -42.3509; -3.76704; 670; 228; 1024; 1024; 1024; 204; 1024; 1024; 1024; 0; 3; 0; 1300; 15; 9; 0.016683; 0; 0; 0; -0.397404; -2.66455; -2.55; 
47;54;2019/06/21 14:29:43;455; 357.6; 7.99202; 454.995; 357.552; 0; 16; 1; -0.199076; -2.05354; -1.82811;-0.198814; -2.05082; -1.82559;0.000667886; 0.00349975; -0.0137722;-0.028613; -0.159985; 0.480709;-1; -1; -1; -1; -1; 100; 0; 0; 0; 0; 0;0; 0; 0;0; 0; 0;0; 0; 0;1; -0.198814; -2.05082; -1.5; 0; 0; 0; -3.77113; -42.388; -3.77113; 670; 228; 1024; 1024; 1024; 204; 1024; 1024; 1024; 0; 3; 0; 1300; 15; 9; 0.016684; 0; 0; 0; -0.397629; -2.66606; -2.55; 
48;55;2019/06/21 14:29:43;455; 357.6; 7.99743; 454.996; 357.565; 0; 17; 1; -0.198942; -2.05215; -1.82687;-0.198853; -2.05122; -1.82598;0.000483855; 0.0025581; -0.00987485;-0.0263087; -0.135957; 0.514486;-1; -1; -1; -1; -1; 100; 0; 0; 0; 0; 0;0; 0; 0;0; 0; 0;0; 0; 0;1; -0.198853; -2.05122; -1.5; 0; 0; 0; -3.7736; -42.4113; -3.7736; 670; 228; 1024; 1024; 1024; 204; 1024; 1024; 1024; 0; 3; 0; 1300; 15; 9; 0.016684; 0; 0; 0; -0.397705; -2.66658; -2.55; 
49;56;2019/06/21 14:29:43;455; 357.6; 7.9926; 454.997; 357.575; 0; 18; 1; -0.199062; -2.05339; -1.82798;-0.198915; -2.05187; -1.82658;-0.000189666; -0.00369638; -0.0119955;-0.0233592; -0.118752; 0.474946;-1; -1; -1; -1; -1; 100; 0; 0; 0; 0; 0;0; 0; 0;0; 0; 0;0; 0; 0;1; -0.198915; -2.05187; -1.5; 0; 0; 0; -3.78119; -42.5243; -3.78119; 670; 228; 1024; 1024; 1024; 204; 1024; 1024; 1024; 0; 3; 0; 1300; 15; 9; 0.016684; 0; 0; 0; -0.397831; -2.66743; -2.55; 
50;57;2019/06/21 14:29:44;455; 357.6; 8.00628; 454.998; 357.582; 0; 19; 1; -0.198722; -2.04988; -1.82486;-0.198857; -2.05127; -1.82606;-0.000302852; -0.00436427; -0.0100968;-0.0191206; -0.0934895; 0.414443;-1; -1; -1; -1; -1; 100; 0; 0; 0; 0; 0;0; 0; 0;0; 0; 0;0; 0; 0;1; -0.198857; -2.05127; -1.5; 0; 0; 0; -3.78117; -42.5226; -3.78117; 670; 228; 1024; 1024; 1024; 204; 1024; 1024; 1024; 0; 3; 0; 1300; 15; 9; 0.016683; 0; 0; 0; -0.397715; -2.66666; -2.55; 
51;58;2019/06/21 14:29:44;455; 357.6; 8.0001; 454.999; 357.587; 0; 20; 1; -0.198875; -2.05146; -1.82626;-0.198863; -2.05133; -1.82612;-0.000390948; -0.00491362; -0.00879379;-0.0155173; -0.0754669; 0.341743;-1; -1; -1; -1; -1; 100; 0; 0; 0; 0; 0;0; 0; 0;0; 0; 0;0; 0; 0;1; -0.198863; -2.05133; -1.5; 0; 0; 0; -3.78211; -42.5326; -3.78211; 670; 228; 1024; 1024; 1024; 204; 1024; 1024; 1024; 0; 3; 0; 1300; 15; 9; 0.016684; 0; 0; 0; -0.397725; -2.66673; -2.55; 
52;59;2019/06/21 14:29:44;455; 357.6; 7.99538; 454.999; 357.591; 0; 21; 1; -0.198993; -2.05268; -1.82734;-0.198902; -2.05173; -1.82649;-0.00103185; -0.0112671; -0.0131674;-0.0169258; -0.10755; 0.230332;-1; -1; -1; -1; -1; 100; 0; 0; 0; 0; 0;0; 0; 0;0; 0; 0;0; 0; 0;1; -0.198902; -2.05173; -1.5; 0; 0; 0; -3.78893; -42.6421; -3.78893; 670; 228; 1024; 1024; 1024; 204; 1024; 1024; 1024; 0; 3; 0; 1300; 15; 9; 0.016684; 0; 0; 0; -0.397803; -2.66726; -2.55; 
53;60;2019/06/21 14:29:44;455; 357.6; 7.99538; 454.999; 357.594; 1; 0; 1; -0.198993; -2.05268; -1.82734;-0.198902; -2.05173; -1.82649;-0.00103185; -0.0112671; -0.0131674;-0.0169258; -0.10755; 0.230332;-1; -1; -1; -1; -1; 100; 0; 0; 0; 0; 0;0; 0; 0;0; 0; 0;0; 0; 0;1; -0.198902; -2.05173; -1.5; 0; 0; 0; -3.78893; -42.6421; -3.78893; 670; 228; 1024; 1024; 1024; 204; 1024; 1024; 1024; 0; 3; 0; 1300; 15; 9; 0.016684; 0; 0; 0; -0.397803; -2.66726; -2.55; 
54;61;2019/06/21 14:29:44;455; 357.6; 7.99538; 454.999; 357.587; 2; 0; 1; -0.198993; -2.05268; -1.82734;-0.198902; -2.05173; -1.82649;-0.00103185; -0.0112671; -0.0131674;-0.0169258; -0.10755; 0.230332;-1; -1; -1; -1; -1; 100; 0; 0; 0; 0; 0;0; 0; 0;0; 0; 0;0; 0; 0;1; -0.198902; -2.05173; -1.5; 0; 0; 0; -3.78893; -42.6421; -3.78893; 670; 228; 1024; 1024; 1024; 204; 1024; 1024; 1024; 0; 3; 0; 1300; 15; 9; 0.016684; 0; 0; 0; -0.397803; -2.66726; -2.55; 
55;62;2019/06/21 14:29:44;455; 357.6; 7.99538; 454.998; 357.581; 3; 0; 1; -0.198993; -2.05268; -1.82734;-0.198902; -2.05173; -1.82649;-0.00103185; -0.0112671; -0.0131674;-0.0169258; -0.10755; 0.230332;-1; -1; -1; -1; -1; 100; 0; 0; 0; 0; 0;0; 0; 0;0; 0; 0;0; 0; 0;1; -0.198902; -2.05173; -1.5; 0; 0; 0; -3.78893; -42.6421; -3.78893; 670; 228; 1024; 1024; 1024; 204; 1024; 1024; 1024; 0; 3; 0; 1300; 15; 9; 0.016684; 0; 0; 0; -0.397803; -2.66726; -2.55; 
56;63;2019/06/21 14:29:44;455; 357.6; 7.99538; 454.997; 357.574; 4; 0; 1; -0.198993; -2.05268; -1.82734;-0.198902; -2.05173; -1.82649;-0.00103185; -0.0112671; -0.0131674;-0.0169258; -0.10755; 0.230332;-1; -1; -1; -1; -1; 100; 0; 0; 0; 0; 0;0; 0; 0;0; 0; 0;0; 0; 0;1; -0.198902; -2.05173; -1.5; 0; 0; 0; -3.78893; -42.6421; -3.78893; 670; 228; 1024; 1024; 1024; 204; 1024; 1024; 1024; 0; 3; 0; 1300; 15; 9; 0.016684; 0; 0; 0; -0.397803; -2.66726; -2.55; 
57;64;2019/06/21 14:29:44;455; 357.6; 7.99538; 454.997; 357.568; 5; 0; 1; -0.198993; -2.05268; -1.82734;-0.198902; -2.05173; -1.82649;-0.00103185; -0.0112671; -0.0131674;-0.0169258; -0.10755; 0.230332;-1; -1; -1; -1; -1; 100; 0; 0; 0; 0; 0;0; 0; 0;0; 0; 0;0; 0; 0;1; -0.198902; -2.05173; -1.5; 0; 0; 0; -3.78893; -42.6421; -3.78893; 670; 228; 1024; 1024; 1024; 204; 1024; 1024; 1024; 0; 3; 0; 1300; 15; 9; 0.016684; 0; 0; 0; -0.397803; -2.66726; -2.55; 
58;65;2019/06/21 14:29:44;455.385; 357.154; 7.98875; 454.996; 357.561; 0; 1; 1; -0.20156; -2.05204; -1.83038;-0.199699; -2.05183; -1.82766;-0.00254774; -0.00895787; -0.0123944;-0.0171642; -0.0916827; 0.141202;-1; -1; -1; -1; -1; 100; 0; 0; 0; 0; 0;0; 0; 0;0; 0; 0;0; 0; 0;1; -0.199699; -2.05183; -1.5; 0; 0; 0; -3.81849; -42.6072; -3.81849; 670; 228; 1024; 1024; 1024; 204; 1024; 1024; 1024; 0; 3; 0; 1300; 15; 9; 0.100102; 0; 0; 0; -0.399399; -2.66738; -2.55; 
59;66;2019/06/21 14:29:44;455.171; 357.659; 7.9817; 455.388; 357.145; 0; 2; 1; -0.200401; -2.0565; -1.83028;-0.19991; -2.05323; -1.82844;-0.00383305; -0.009758; -0.0128065;-0.0197076; -0.0818537; 0.0783315;-1; -1; -1; -1; -1; 100; 0; 0; 0; 0; 0;0; 0; 0;0; 0; 0;0; 0; 0;1; -0.19991; -2.05323; -1.5; 0; 0; 0; -3.8347; -42.649; -3.8347; 670; 228; 1024; 1024; 1024; 204; 1024; 1024; 1024; 0; 3; 0; 1300; 15; 9; 0.0166839; 0; 0; 0; -0.39982; -2.6692; -2.55; 
60;67;2019/06/21 14:29:44;455.171; 357.659; 7.99632; 455.178; 357.65; 0; 3; 1; -0.200035; -2.05274; -1.82693;-0.199947; -2.05308; -1.82799;-0.00454883; -0.00849776; -0.0107556;-0.0213258; -0.0595772; 0.0497013;-1; -1; -1; -1; -1; 100; 0; 0; 0; 0; 0;0; 0; 0;0; 0; 0;0; 0; 0;1; -0.199947; -2.05308; -1.5; 0; 0; 0; -3.84221; -42.6259; -3.84221; 670; 228; 1024; 1024; 1024; 204; 1024; 1024; 1024; 0; 3; 0; 1300; 15; 9; 0.0166841; 0; 0; 0; -0.399894; -2.66901; -2.55; 
61;68;2019/06/21 14:29:44;455.171; 357.659; 8.02422; 455.18; 357.652; 0; 4; 1; -0.199339; -2.04561; -1.82058;-0.199765; -2.05084; -1.82576;-0.00470723; -0.00415185; -0.00580638;-0.0223952; -0.0352833; 0.0391722;-1; -1; -1; -1; -1; 100; 0; 0; 0; 0; 0;0; 0; 0;0; 0; 0;0; 0; 0;1; -0.199765; -2.05084; -1.5; 0; 0; 0; -3.84025; -42.5103; -3.84025; 670; 228; 1024; 1024; 1024; 204; 1024; 1024; 1024; 0; 3; 0; 1300; 15; 9; 0.016683; 0; 0; 0; -0.39953; -2.66609; -2.55; 
62;69;2019/06/21 14:29:44;455.171; 357.659; 7.98446; 455.182; 357.654; 0; 5; 1; -0.200332; -2.05579; -1.82964;-0.199935; -2.05233; -1.82693;-0.00516135; -0.00465807; -0.00524078;-0.0238346; -0.020613; 0.0312474;-1; -1; -1; -1; -1; 100; 0; 0; 0; 0; 0;0; 0; 0;0; 0; 0;0; 0; 0;1; -0.199935; -2.05233; -1.5; 0; 0; 0; -3.8478; -42.5491; -3.8478; 670; 228; 1024; 1024; 1024; 204; 1024; 1024; 1024; 0; 3; 0; 1300; 15; 9; 0.0166841; 0; 0; 0; -0.39987; -2.66802; -2.55; 
63;70;2019/06/21 14:29:44;455; 357.6; 7.97931; 455.183; 357.656; 0; 6; 1; -0.199393; -2.05681; -1.83102;-0.199772; -2.05367; -1.82816;-0.00499469; -0.00701391; -0.00677997;-0.0229381; -0.00309764; 0.0326705;-1; -1; -1; -1; -1; 100; 0; 0; 0; 0; 0;0; 0; 0;0; 0; 0;0; 0; 0;1; -0.199772; -2.05367; -1.5; 0; 0; 0; -3.84313; -42.6144; -3.84313; 670; 228; 1024; 1024; 1024; 204; 1024; 1024; 1024; 0; 3; 0; 1300; 15; 9; 0.0166839; 0; 0; 0; -0.399545; -2.66977; -2.55; 
64;71;2019/06/21 14:29:44;455.171; 357.659; 7.98658; 455.011; 357.599; 0; 7; 1; -0.200279; -2.05525; -1.82916;-0.199924; -2.05414; -1.82846;-0.00389603; -0.0134628; -0.00727427;-0.0191505; -0.0198598; 0.0400618;-1; -1; -1; -1; -1; 100; 0; 0; 0; 0; 0;0; 0; 0;0; 0; 0;0; 0; 0;1; -0.199924; -2.05414; -1.5; 0; 0; 0; -3.83557; -42.7269; -3.83557; 670; 228; 1024; 1024; 1024; 204; 1024; 1024; 1024; 0; 3; 0; 1300; 15; 9; 0.0166841; 0; 0; 0; -0.399849; -2.67039; -2.55; 
65;72;2019/06/21 14:29:44;455; 357.6; 7.98021; 455.178; 357.668; 0; 8; 1; -0.199371; -2.05658; -1.83082;-0.199758; -2.05487; -1.82917;-0.00173212; -0.0146494; -0.00725792;-0.00309513; -0.0314616; 0.0462088;-1; -1; -1; -1; -1; 100; 0; 0; 0; 0; 0;0; 0; 0;0; 0; 0;0; 0; 0;1; -0.199758; -2.05487; -1.5; 0; 0; 0; -3.81186; -42.7609; -3.81186; 670; 228; 1024; 1024; 1024; 204; 1024; 1024; 1024; 0; 3; 0; 1300; 15; 9; 0.016683; 0; 0; 0; -0.399517; -2.67134; -2.55; 
66;73;2019/06/21 14:29:44;455; 357.6; 7.97942; 455.002; 357.612; 0; 9; 1; -0.199391; -2.05678; -1.831;-0.199648; -2.05545; -1.82972;0.000156371; -0.0182338; -0.011258;0.0169446; -0.0577814; 0.0257175;-1; -1; -1; -1; -1; 100; 0; 0; 0; 0; 0;0; 0; 0;0; 0; 0;0; 0; 0;1; -0.199648; -2.05545; -1.5; 0; 0; 0; -3.79183; -42.8298; -3.79183; 670; 228; 1024; 1024; 1024; 204; 1024; 1024; 1024; 0; 3; 0; 1300; 15; 9; 0.0166839; 0; 0; 0; -0.399296; -2.67208; -2.55; 
67;74;2019/06/21 14:29:44;455.171; 357.659; 8.0054; 454.996; 357.61; 0; 10; 1; -0.199808; -2.05041; -1.82486;-0.199696; -2.05394; -1.82826;0.000369151; -0.0233139; -0.0167162;0.0304514; -0.111238; -0.0281638;-1; -1; -1; -1; -1; 100; 0; 0; 0; 0; 0;0; 0; 0;0; 0; 0;0; 0; 0;1; -0.199696; -2.05394; -1.5; 0; 0; 0; -3.79072; -42.8794; -3.79072; 670; 228; 1024; 1024; 1024; 204; 1024; 1024; 1024; 0; 3; 0; 1300; 15; 9; 0.0166841; 0; 0; 0; -0.399392; -2.67012; -2.55; 
68;75;2019/06/21 14:29:44;455.171; 357.659; 7.97054; 455.164; 357.667; 0; 11; 1; -0.200682; -2.05938; -1.83284;-0.199992; -2.05557; -1.82963;-5.19327e-06; -0.0269536; -0.0208343;0.0388745; -0.155834; -0.0792089;-1; -1; -1; -1; -1; 100; 0; 0; 0; 0; 0;0; 0; 0;0; 0; 0;0; 0; 0;1; -0.199992; -2.05557; -1.5; 0; 0; 0; -3.79989; -42.9712; -3.79989; 670; 228; 1024; 1024; 1024; 204; 1024; 1024; 1024; 0; 3; 0; 1300; 15; 9; 0.016683; 0; 0; 0; -0.399983; -2.67224; -2.55; 
69;76;2019/06/21 14:29:44;455.171; 357.659; 7.97094; 455.164; 357.665; 0; 12; 1; -0.200672; -2.05928; -1.83275;-0.200196; -2.05668; -1.83057;-0.00169416; -0.0282086; -0.0221319;0.0365133; -0.178193; -0.108871;-1; -1; -1; -1; -1; 100; 0; 0; 0; 0; 0;0; 0; 0;0; 0; 0;0; 0; 0;1; -0.200196; -2.05668; -1.5; 0; 0; 0; -3.81981; -43.0142; -3.81981; 670; 228; 1024; 1024; 1024; 204; 1024; 1024; 1024; 0; 3; 0; 1300; 15; 9; 0.0166841; 0; 0; 0; -0.400391; -2.67369; -2.55; 
70;77;2019/06/21 14:29:44;455.171; 357.659; 8.01709; 455.168; 357.665; 0; 13; 1; -0.199516; -2.04742; -1.8222;-0.199992; -2.05391; -1.82806;-0.00128647; -0.0159744; -0.0116753;0.0323356; -0.116952; -0.0829085;-1; -1; -1; -1; -1; 100; 0; 0; 0; 0; 0;0; 0; 0;0; 0; 0;0; 0; 0;1; -0.199992; -2.05391; -1.5; 0; 0; 0; -3.81207; -42.7619; -3.81207; 670; 228; 1024; 1024; 1024; 204; 1024; 1024; 1024; 0; 3; 0; 1300; 15; 9; 0.0166839; 0; 0; 0; -0.399984; -2.67008; -2.55; 
71;78;2019/06/21 14:29:44;455.171; 357.659; 7.99044; 455.17; 357.664; 0; 14; 1; -0.200182; -2.05425; -1.82827;-0.200049; -2.05401; -1.82812;-0.00193286; -0.00613111; -0.00283428;0.0185992; -0.036133; -0.0320687;-1; -1; -1; -1; -1; 100; 0; 0; 0; 0; 0;0; 0; 0;0; 0; 0;0; 0; 0;1; -0.200049; -2.05401; -1.5; 0; 0; 0; -3.81929; -42.6074; -3.81929; 670; 228; 1024; 1024; 1024; 204; 1024; 1024; 1024; 0; 3; 0; 1300; 15; 9; 0.0166841; 0; 0; 0; -0.400098; -2.67021; -2.55; 
72;79;2019/06/21 14:29:44;455.171; 357.659; 8.02242; 455.175; 357.664; 0; 15; 1; -0.199384; -2.04606; -1.82099;-0.199849; -2.05163; -1.82598;-0.00196421; 0.0115884; 0.0132207;0.00268587; 0.0974873; 0.0785737;-1; -1; -1; -1; -1; 100; 0; 0; 0; 0; 0;0; 0; 0;0; 0; 0;0; 0; 0;1; -0.199849; -2.05163; -1.5; 0; 0; 0; -3.8158; -42.276; -3.8158; 670; 228; 1024; 1024; 1024; 204; 1024; 1024; 1024; 0; 3; 0; 1300; 15; 9; 0.016683; 0; 0; 0; -0.399699; -2.66711; -2.55; 
73;80;2019/06/21 14:29:44;455.171; 357.659; 7.99411; 455.18; 357.665; 0; 16; 1; -0.20009; -2.05331; -1.82743;-0.199921; -2.05213; -1.82642;-0.0020799; 0.0141688; 0.0152887;-0.00817472; 0.20827; 0.175033;-1; -1; -1; -1; -1; 100; 0; 0; 0; 0; 0;0; 0; 0;0; 0; 0;0; 0; 0;1; -0.199921; -2.05213; -1.5; 0; 0; 0; -3.81827; -42.2453; -3.81827; 670; 228; 1024; 1024; 1024; 204; 1024; 1024; 1024; 0; 3; 0; 1300; 15; 9; 0.0166839; 0; 0; 0; -0.399843; -2.66777; -2.55; 
74;81;2019/06/21 14:29:44;455.171; 357.659; 7.97538; 455.18; 357.664; 0; 17; 1; -0.20056; -2.05813; -1.83173;-0.200113; -2.05393; -1.82801;-0.00173286; 0.015052; 0.0156572;-0.0118084; 0.292812; 0.250836;-1; -1; -1; -1; -1; 100; 0; 0; 0; 0; 0;0; 0; 0;0; 0; 0;0; 0; 0;1; -0.200113; -2.05393; -1.5; 0; 0; 0; -3.81861; -42.2685; -3.81861; 670; 228; 1024; 1024; 1024; 204; 1024; 1024; 1024; 0; 3; 0; 1300; 15; 9; 0.0166841; 0; 0; 0; -0.400226; -2.67011; -2.55; 
75;82;2019/06/21 14:29:44;455; 357.6; 8.00292; 455.18; 357.663; 0; 18; 1; -0.198805; -2.05074; -1.82562;-0.199721; -2.05297; -1.82729;0.000858245; 0.0238505; 0.0224759;0.00311419; 0.383712; 0.328751;-1; -1; -1; -1; -1; 100; 0; 0; 0; 0; 0;0; 0; 0;0; 0; 0;0; 0; 0;1; -0.199721; -2.05297; -1.5; 0; 0; 0; -3.78654; -42.1087; -3.78654; 670; 228; 1024; 1024; 1024; 204; 1024; 1024; 1024; 0; 3; 0; 1300; 15; 9; 0.016683; 0; 0; 0; -0.399441; -2.66887; -2.55; 
76;83;2019/06/21 14:29:44;455.171; 357.659; 7.97633; 455.004; 357.603; 0; 19; 1; -0.200536; -2.05789; -1.83151;-0.199965; -2.05445; -1.82856;0.000621471; 0.0121429; 0.011482;0.0094925; 0.342581; 0.289785;-1; -1; -1; -1; -1; 100; 0; 0; 0; 0; 0;0; 0; 0;0; 0; 0;0; 0; 0;1; -0.199965; -2.05445; -1.5; 0; 0; 0; -3.79344; -42.3255; -3.79344; 670; 228; 1024; 1024; 1024; 204; 1024; 1024; 1024; 0; 3; 0; 1300; 15; 9; 0.0166841; 0; 0; 0; -0.39993; -2.67078; -2.55; 
77;84;2019/06/21 14:29:44;455.171; 357.659; 8.00071; 455.172; 357.66; 0; 20; 1; -0.199925; -2.05161; -1.82593;-0.199953; -2.0536; -1.82777;0.000755572; 0.00893106; 0.00830111;0.0164383; 0.265736; 0.218368;-1; -1; -1; -1; -1; 100; 0; 0; 0; 0; 0;0; 0; 0;0; 0; 0;0; 0; 0;1; -0.199953; -2.0536; -1.5; 0; 0; 0; -3.79193; -42.3591; -3.79193; 670; 228; 1024; 1024; 1024; 204; 1024; 1024; 1024; 0; 3; 0; 1300; 15; 9; 0.0166839; 0; 0; 0; -0.399906; -2.66968; -2.55; 
78;85;2019/06/21 14:29:44;455; 357.6; 7.99413; 455.171; 357.659; 0; 21; 1; -0.199024; -2.053; -1.82763;-0.199674; -2.05342; -1.82773;0.0011528; -0.00180371; -0.00199495;0.0223182; 0.105928; 0.0702207;-1; -1; -1; -1; -1; 100; 0; 0; 0; 0; 0;0; 0; 0;0; 0; 0;0; 0; 0;1; -0.199674; -2.05342; -1.5; 0; 0; 0; -3.78286; -42.5262; -3.78286; 670; 228; 1024; 1024; 1024; 204; 1024; 1024; 1024; 0; 3; 0; 1300; 15; 9; 0.0166841; 0; 0; 0; -0.399349; -2.66944; -2.55; 
79;86;2019/06/21 14:29:44;455.171; 357.659; 7.98231; 454.996; 357.599; 0; 22; 1; -0.200386; -2.05634; -1.83014;-0.199888; -2.0543; -1.82845;0.000826665; -0.00973467; -0.00931971;0.0250053; -0.0319593; -0.0562008;-1; -1; -1; -1; -1; 100; 0; 0; 0; 0; 0;0; 0; 0;0; 0; 0;0; 0; 0;1; -0.199888; -2.0543; -1.5; 0; 0; 0; -3.79001; -42.6707; -3.79001; 670; 228; 1024; 1024; 1024; 204; 1024; 1024; 1024; 0; 3; 0; 1300; 15; 9; 0.016683; 0; 0; 0; -0.399775; -2.67058; -2.55; 
80;87;2019/06/21 14:29:44;455.171; 357.659; 7.99695; 455.166; 357.657; 0; 23; 1; -0.200019; -2.05258; -1.82679;-0.199927; -2.05378; -1.82795;0.00123899; -0.00524346; -0.0053546;0.0268785; -0.100275; -0.117682;-1; -1; -1; -1; -1; 100; 0; 0; 0; 0; 0;0; 0; 0;0; 0; 0;0; 0; 0;1; -0.199927; -2.05378; -1.5; 0; 0; 0; -3.78684; -42.5885; -3.78684; 670; 228; 1024; 1024; 1024; 204; 1024; 1024; 1024; 0; 3; 0; 1300; 15; 9; 0.0166839; 0; 0; 0; -0.399854; -2.66992; -2.55; 
81;88;2019/06/21 14:29:44;455.171; 357.659; 7.99409; 455.166; 357.657; 0; 24; 1; -0.20009; -2.05331; -1.82744;-0.199976; -2.05364; -1.8278;-0.00027706; -0.00581076; -0.00522485;0.0115905; -0.178688; -0.181298;-1; -1; -1; -1; -1; 100; 0; 0; 0; 0; 0;0; 0; 0;0; 0; 0;0; 0; 0;1; -0.199976; -2.05364; -1.5; 0; 0; 0; -3.80218; -42.5947; -3.80218; 670; 228; 1024; 1024; 1024; 204; 1024; 1024; 1024; 0; 3; 0; 1300; 15; 9; 0.0166841; 0; 0; 0; -0.399952; -2.66973; -2.55; 
82;89;2019/06/21 14:29:44;455.171; 357.659; 7.99413; 455.17; 357.658; 0; 25; 1; -0.200089; -2.0533; -1.82743;-0.20001; -2.05354; -1.82769;-0.000345283; 0.000142358; 0.000344806;0.00309128; -0.155165; -0.153282;-1; -1; -1; -1; -1; 100; 0; 0; 0; 0; 0;0; 0; 0;0; 0; 0;0; 0; 0;1; -0.20001; -2.05354; -1.5; 0; 0; 0; -3.80347; -42.4978; -3.80347; 670; 228; 1024; 1024; 1024; 204; 1024; 1024; 1024; 0; 3; 0; 1300; 15; 9; 0.0166839; 0; 0; 0; -0.40002; -2.6696; -2.55; 
83;90;2019/06/21 14:29:44;455; 357.6; 8.00155; 455.172; 357.659; 0; 26; 1; -0.198839; -2.05109; -1.82594;-0.199659; -2.05281; -1.82716;0.000968643; 0.00324839; 0.00263151;0.00270619; -0.115807; -0.114625;-1; -1; -1; -1; -1; 100; 0; 0; 0; 0; 0;0; 0; 0;0; 0; 0;0; 0; 0;1; -0.199659; -2.05281; -1.5; 0; 0; 0; -3.78432; -42.4332; -3.78432; 670; 228; 1024; 1024; 1024; 204; 1024; 1024; 1024; 0; 3; 0; 1300; 15; 9; 0.0166831; 0; 0; 0; -0.399318; -2.66865; -2.55; 
84;91;2019/06/21 14:29:44;455; 357.6; 7.98622; 454.998; 357.599; 0; 27; 1; -0.199221; -2.05503; -1.82944;-0.199528; -2.05347; -1.82785;0.00116781; 0.00172515; 0.00110541;0.00168371; -0.055383; -0.0563859;-1; -1; -1; -1; -1; 100; 0; 0; 0; 0; 0;0; 0; 0;0; 0; 0;0; 0; 0;1; -0.199528; -2.05347; -1.5; 0; 0; 0; -3.77993; -42.4712; -3.77993; 670; 228; 1024; 1024; 1024; 204; 1024; 1024; 1024; 0; 3; 0; 1300; 15; 9; 0.0166839; 0; 0; 0; -0.399055; -2.66952; -2.55; 
85;92;2019/06/21 14:29:44;454.842; 356.211; 7.93254; 454.997; 357.599; 0; 28; 1; -0.199576; -2.0616; -1.84657;-0.199542; -2.05591; -1.83346;0.00208197; -0.00542703; -0.0193738;0.00602629; -0.016017; -0.0740065;-1; -1; -1; -1; -1; 100; 0; 0; 0; 0; 0;0; 0; 0;0; 0; 0;0; 0; 0;1; -0.199542; -2.05591; -1.5; 0; 0; 0; -3.77152; -42.6356; -3.77152; 670; 228; 1024; 1024; 1024; 204; 1024; 1024; 1024; 0; 3; 0; 1300; 15; 9; 0.0166841; 0; 0; 0; -0.399084; -2.67269; -2.55; 
86;93;2019/06/21 14:29:44;455; 354; 7.43392; 454.833; 356.181; 0; 29; 1; -0.214022; -2.18743; -1.9785;-0.203886; -2.09537; -1.87697;-0.0145703; -0.169433; -0.20752;-0.0595567; -0.665699; -0.85224;-1; -1; -1; -1; -1; 100; 0; 0; 0; 0; 0;0; 0; 0;0; 0; 0;0; 0; 0;1; -0.203886; -2.09537; -1.5; 0; 0; 0; -4.01225; -46.0631; -4.01225; 670; 228; 1024; 1024; 1024; 204; 1024; 1024; 1024; 0; 3; 0; 1300; 15; 9; 0.016683; 0; 0; 0; -0.407772; -2.72398; -2.55; 
87;94;2019/06/21 14:29:44;455; 354; 7.43392; 454.987; 353.897; 1; 0; 1; -0.214022; -2.18743; -1.9785;-0.203886; -2.09537; -1.87697;-0.0145703; -0.169433; -0.20752;-0.0595567; -0.665699; -0.85224;-1; -1; -1; -1; -1; 100; 0; 0; 0; 0; 0;0; 0; 0;0; 0; 0;0; 0; 0;1; -0.203886; -2.09537; -1.5; 0; 0; 0; -4.01225; -46.0631; -4.01225; 670; 228; 1024; 1024; 1024; 204; 1024; 1024; 1024; 0; 3; 0; 1300; 15; 9; 0.016683; 0; 0; 0; -0.407772; -2.72398; -2.55; 
88;95;2019/06/21 14:29:44;455; 354; 7.43392; 454.973; 353.794; 2; 0; 1; -0.214022; -2.18743; -1.9785;-0.203886; -2.09537; -1.87697;-0.0145703; -0.169433; -0.20752;-0.0595567; -0.665699; -0.85224;-1; -1; -1; -1; -1; 100; 0; 0; 0; 0; 0;0; 0; 0;0; 0; 0;0; 0; 0;1; -0.203886; -2.09537; -1.5; 0; 0; 0; -4.01225; -46.0631; -4.01225; 670; 228; 1024; 1024; 1024; 204; 1024; 1024; 1024; 0; 3; 0; 1300; 15; 9; 0.016683; 0; 0; 0; -0.407772; -2.72398; -2.55; 
89;96;2019/06/21 14:29:44;455; 354; 7.43392; 454.96; 353.691; 3; 0; 1; -0.214022; -2.18743; -1.9785;-0.203886; -2.09537; -1.87697;-0.0145703; -0.169433; -0.20752;-0.0595567; -0.665699; -0.85224;-1; -1; -1; -1; -1; 100; 0; 0; 0; 0; 0;0; 0; 0;0; 0; 0;0; 0; 0;1; -0.203886; -2.09537; -1.5; 0; 0; 0; -4.01225; -46.0631; -4.01225; 670; 228; 1024; 1024; 1024; 204; 1024; 1024; 1024; 0; 3; 0; 1300; 15; 9; 0.016683; 0; 0; 0; -0.407772; -2.72398; -2.55; 
90;97;2019/06/21 14:29:44;455; 354; 7.43392; 454.946; 353.589; 4; 0; 1; -0.214022; -2.18743; -1.9785;-0.203886; -2.09537; -1.87697;-0.0145703; -0.169433; -0.20752;-0.0595567; -0.665699; -0.85224;-1; -1; -1; -1; -1; 100; 0; 0; 0; 0; 0;0; 0; 0;0; 0; 0;0; 0; 0;1; -0.203886; -2.09537; -1.5; 0; 0; 0; -4.01225; -46.0631; -4.01225; 670; 228; 1024; 1024; 1024; 204; 1024; 1024; 1024; 0; 3; 0; 1300; 15; 9; 0.016683; 0; 0; 0; -0.407772; -2.72398; -2.55; 
91;98;2019/06/21 14:29:44;455; 354; 7.43392; 454.933; 353.486; 5; 0; 1; -0.214022; -2.18743; -1.9785;-0.203886; -2.09537; -1.87697;-0.0145703; -0.169433; -0.20752;-0.0595567; -0.665699; -0.85224;-1; -1; -1; -1; -1; 100; 0; 0; 0; 0; 0;0; 0; 0;0; 0; 0;0; 0; 0;1; -0.203886; -2.09537; -1.5; 0; 0; 0; -4.01225; -46.0631; -4.01225; 670; 228; 1024; 1024; 1024; 204; 1024; 1024; 1024; 0; 3; 0; 1300; 15; 9; 0.016683; 0; 0; 0; -0.407772; -2.72398; -2.55; 
92;99;2019/06/21 14:29:44;455; 354; 7.43392; 454.92; 353.385; 6; 0; 1; -0.214022; -2.18743; -1.9785;-0.203886; -2.09537; -1.87697;-0.0145703; -0.169433; -0.20752;-0.0595567; -0.665699; -0.85224;-1; -1; -1; -1; -1; 100; 0; 0; 0; 0; 0;0; 0; 0;0; 0; 0;0; 0; 0;1; -0.203886; -2.09537; -1.5; 0; 0; 0; -4.01225; -46.0631; -4.01225; 670; 228; 1024; 1024; 1024; 204; 1024; 1024; 1024; 0; 3; 0; 1300; 15; 9; 0.016683; 0; 0; 0; -0.407772; -2.72398; -2.55; 
93;100;2019/06/21 14:29:44;455; 354; 7.43392; 454.907; 353.283; 7; 0; 1; -0.214022; -2.18743; -1.9785;-0.203886; -2.09537; -1.87697;-0.0145703; -0.169433; -0.20752;-0.0595567; -0.665699; -0.85224;-1; -1; -1; -1; -1; 100; 0; 0; 0; 0; 0;0; 0; 0;0; 0; 0;0; 0; 0;1; -0.203886; -2.09537; -1.5; 0; 0; 0; -4.01225; -46.0631; -4.01225; 670; 228; 1024; 1024; 1024; 204; 1024; 1024; 1024; 0; 3; 0; 1300; 15; 9; 0.016683; 0; 0; 0; -0.407772; -2.72398; -2.55; 
94;101;2019/06/21 14:29:44;455; 354; 7.43392; 454.893; 353.182; 8; 0; 1; -0.214022; -2.18743; -1.9785;-0.203886; -2.09537; -1.87697;-0.0145703; -0.169433; -0.20752;-0.0595567; -0.665699; -0.85224;-1; -1; -1; -1; -1; 100; 0; 0; 0; 0; 0;0; 0; 0;0; 0; 0;0; 0; 0;1; -0.203886; -2.09537; -1.5; 0; 0; 0; -4.01225; -46.0631; -4.01225; 670; 228; 1024; 1024; 1024; 204; 1024; 1024; 1024; 0; 3; 0; 1300; 15; 9; 0.016683; 0; 0; 0; -0.407772; -2.72398; -2.55; 
95;102;2019/06/21 14:29:44;455; 354; 7.43392; 454.88; 353.081; 9; 0; 1; -0.214022; -2.18743; -1.9785;-0.203886; -2.09537; -1.87697;-0.0145703; -0.169433; -0.20752;-0.0595567; -0.665699; -0.85224;-1; -1; -1; -1; -1; 100; 0; 0; 0; 0; 0;0; 0; 0;0; 0; 0;0; 0; 0;1; -0.203886; -2.09537; -1.5; 0; 0; 0; -4.01225; -46.0631; -4.01225; 670; 228; 1024; 1024; 1024; 204; 1024; 1024; 1024; 0; 3; 0; 1300; 15; 9; 0.016683; 0; 0; 0; -0.407772; -2.72398; -2.55; 
96;103;2019/06/21 14:29:44;455; 354; 7.43392; 454.867; 352.981; 10; 0; 0; 0; 0; 0;0; 0; 0;0; 0; 0;0; 0; 0;-1; -1; -1; -1; -1; 100; 0; 0; 0; 0; 0;0; 0; 0;0; 0; 0;0; 0; 0;0; 0; 0; 0; 0; 0; 0; 0; 0; 0; 670; 228; 1024; 1024; 1024; 204; 1024; 1024; 1024; 0; 3; 0; 1300; 15; 9; 0; 0; 0; 0; 0; 0; 0; 
97;104;2019/06/21 14:29:44;455; 354; 7.43392; 454.867; 352.981; 11; 0; 0; 0; 0; 0;0; 0; 0;0; 0; 0;0; 0; 0;-1; -1; -1; -1; -1; 100; 0; 0; 0; 0; 0;0; 0; 0;0; 0; 0;0; 0; 0;0; 0; 0; 0; 0; 0; 0; 0; 0; 0; 670; 228; 1024; 1024; 1024; 204; 1024; 1024; 1024; 0; 3; 0; 1300; 15; 9; 0; 0; 0; 0; 0; 0; 0; 
98;105;2019/06/21 14:29:44;455; 354; 7.43392; 454.867; 352.981; 12; 0; 0; 0; 0; 0;0; 0; 0;0; 0; 0;0; 0; 0;-1; -1; -1; -1; -1; 100; 0; 0; 0; 0; 0;0; 0; 0;0; 0; 0;0; 0; 0;0; 0; 0; 0; 0; 0; 0; 0; 0; 0; 670; 228; 1024; 1024; 1024; 204; 1024; 1024; 1024; 0; 3; 0; 1300; 15; 9; 0; 0; 0; 0; 0; 0; 0; 
99;106;2019/06/21 14:29:44;455; 354; 7.43392; 454.867; 352.981; 13; 0; 0; 0; 0; 0;0; 0; 0;0; 0; 0;0; 0; 0;-1; -1; -1; -1; -1; 100; 0; 0; 0; 0; 0;0; 0; 0;0; 0; 0;0; 0; 0;0; 0; 0; 0; 0; 0; 0; 0; 0; 0; 670; 228; 1024; 1024; 1024; 204; 1024; 1024; 1024; 0; 3; 0; 1300; 15; 9; 0; 0; 0; 0; 0; 0; 0; 
100;107;2019/06/21 14:29:44;455; 354; 7.43392; 454.867; 352.981; 14; 0; 0; 0; 0; 0;0; 0; 0;0; 0; 0;0; 0; 0;-1; -1; -1; -1; -1; 100; 0; 0; 0; 0; 0;0; 0; 0;0; 0; 0;0; 0; 0;0; 0; 0; 0; 0; 0; 0; 0; 0; 0; 670; 228; 1024; 1024; 1024; 204; 1024; 1024; 1024; 0; 3; 0; 1300; 15; 9; 0; 0; 0; 0; 0; 0; 0; 
101;108;2019/06/21 14:29:44;455; 354; 7.43392; 454.867; 352.981; 15; 0; 0; 0; 0; 0;0; 0; 0;0; 0; 0;0; 0; 0;-1; -1; -1; -1; -1; 100; 0; 0; 0; 0; 0;0; 0; 0;0; 0; 0;0; 0; 0;0; 0; 0; 0; 0; 0; 0; 0; 0; 0; 670; 228; 1024; 1024; 1024; 204; 1024; 1024; 1024; 0; 3; 0; 1300; 15; 9; 0; 0; 0; 0; 0; 0; 0; 
102;109;2019/06/21 14:29:44;455; 354; 7.43392; 454.867; 352.981; 16; 0; 0; 0; 0; 0;0; 0; 0;0; 0; 0;0; 0; 0;-1; -1; -1; -1; -1; 100; 0; 0; 0; 0; 0;0; 0; 0;0; 0; 0;0; 0; 0;0; 0; 0; 0; 0; 0; 0; 0; 0; 0; 670; 228; 1024; 1024; 1024; 204; 1024; 1024; 1024; 0; 3; 0; 1300; 15; 9; 0; 0; 0; 0; 0; 0; 0; 
103;110;2019/06/21 14:29:44;455; 354; 7.43392; 454.867; 352.981; 17; 0; 0; 0; 0; 0;0; 0; 0;0; 0; 0;0; 0; 0;-1; -1; -1; -1; -1; 100; 0; 0; 0; 0; 0;0; 0; 0;0; 0; 0;0; 0; 0;0; 0; 0; 0; 0; 0; 0; 0; 0; 0; 670; 228; 1024; 1024; 1024; 204; 1024; 1024; 1024; 0; 3; 0; 1300; 15; 9; 0; 0; 0; 0; 0; 0; 0; 
104;111;2019/06/21 14:29:44;455; 354; 7.43392; 454.867; 352.981; 18; 0; 0; 0; 0; 0;0; 0; 0;0; 0; 0;0; 0; 0;-1; -1; -1; -1; -1; 100; 0; 0; 0; 0; 0;0; 0; 0;0; 0; 0;0; 0; 0;0; 0; 0; 0; 0; 0; 0; 0; 0; 0; 670; 228; 1024; 1024; 1024; 204; 1024; 1024; 1024; 0; 3; 0; 1300; 15; 9; 0; 0; 0; 0; 0; 0; 0; 
105;112;2019/06/21 14:29:44;455; 354; 7.43392; 454.867; 352.981; 19; 0; 0; 0; 0; 0;0; 0; 0;0; 0; 0;0; 0; 0;-1; -1; -1; -1; -1; 100; 0; 0; 0; 0; 0;0; 0; 0;0; 0; 0;0; 0; 0;0; 0; 0; 0; 0; 0; 0; 0; 0; 0; 670; 228; 1024; 1024; 1024; 204; 1024; 1024; 1024; 0; 3; 0; 1300; 15; 9; 0; 0; 0; 0; 0; 0; 0; 
106;113;2019/06/21 14:29:44;455; 354; 7.43392; 454.867; 352.981; 20; 0; 0; 0; 0; 0;0; 0; 0;0; 0; 0;0; 0; 0;-1; -1; -1; -1; -1; 100; 0; 0; 0; 0; 0;0; 0; 0;0; 0; 0;0; 0; 0;0; 0; 0; 0; 0; 0; 0; 0; 0; 0; 670; 228; 1024; 1024; 1024; 204; 1024; 1024; 1024; 0; 3; 0; 1300; 15; 9; 0; 0; 0; 0; 0; 0; 0; 
107;114;2019/06/21 14:29:44;455; 354; 7.43392; 454.867; 352.981; 21; 0; 0; 0; 0; 0;0; 0; 0;0; 0; 0;0; 0; 0;-1; -1; -1; -1; -1; 100; 0; 0; 0; 0; 0;0; 0; 0;0; 0; 0;0; 0; 0;0; 0; 0; 0; 0; 0; 0; 0; 0; 0; 670; 228; 1024; 1024; 1024; 204; 1024; 1024; 1024; 0; 3; 0; 1300; 15; 9; 0; 0; 0; 0; 0; 0; 0; 
108;115;2019/06/21 14:29:44;455; 354; 7.43392; 454.867; 352.981; 22; 0; 0; 0; 0; 0;0; 0; 0;0; 0; 0;0; 0; 0;-1; -1; -1; -1; -1; 100; 0; 0; 0; 0; 0;0; 0; 0;0; 0; 0;0; 0; 0;0; 0; 0; 0; 0; 0; 0; 0; 0; 0; 670; 228; 1024; 1024; 1024; 204; 1024; 1024; 1024; 0; 3; 0; 1300; 15; 9; 0; 0; 0; 0; 0; 0; 0; 
109;116;2019/06/21 14:29:44;455; 354; 7.43392; 454.867; 352.981; 23; 0; 0; 0; 0; 0;0; 0; 0;0; 0; 0;0; 0; 0;-1; -1; -1; -1; -1; 100; 0; 0; 0; 0; 0;0; 0; 0;0; 0; 0;0; 0; 0;0; 0; 0; 0; 0; 0; 0; 0; 0; 0; 670; 228; 1024; 1024; 1024; 204; 1024; 1024; 1024; 0; 3; 0; 1300; 15; 9; 0; 0; 0; 0; 0; 0; 0; 
110;117;2019/06/21 14:29:45;455; 354; 7.43392; 454.867; 352.981; 24; 0; 0; 0; 0; 0;0; 0; 0;0; 0; 0;0; 0; 0;-1; -1; -1; -1; -1; 100; 0; 0; 0; 0; 0;0; 0; 0;0; 0; 0;0; 0; 0;0; 0; 0; 0; 0; 0; 0; 0; 0; 0; 670; 228; 1024; 1024; 1024; 204; 1024; 1024; 1024; 0; 3; 0; 1300; 15; 9; 0; 0; 0; 0; 0; 0; 0; 
111;118;2019/06/21 14:29:45;455; 354; 7.43392; 454.867; 352.981; 25; 0; 0; 0; 0; 0;0; 0; 0;0; 0; 0;0; 0; 0;-1; -1; -1; -1; -1; 100; 0; 0; 0; 0; 0;0; 0; 0;0; 0; 0;0; 0; 0;0; 0; 0; 0; 0; 0; 0; 0; 0; 0; 670; 228; 1024; 1024; 1024; 204; 1024; 1024; 1024; 0; 3; 0; 1300; 15; 9; 0; 0; 0; 0; 0; 0; 0; 
112;119;2019/06/21 14:29:45;455; 354; 7.43392; 454.867; 352.981; 26; 0; 0; 0; 0; 0;0; 0; 0;0; 0; 0;0; 0; 0;-1; -1; -1; -1; -1; 100; 0; 0; 0; 0; 0;0; 0; 0;0; 0; 0;0; 0; 0;0; 0; 0; 0; 0; 0; 0; 0; 0; 0; 670; 228; 1024; 1024; 1024; 204; 1024; 1024; 1024; 0; 3; 0; 1300; 15; 9; 0; 0; 0; 0; 0; 0; 0; 
113;120;2019/06/21 14:29:45;455; 356.545; 7.9666; 454.867; 352.981; 0; 1; 1; -0.199711; -2.05455; -1.83754;-0.199711; -2.05455; -1.83754;0; 0; 0;0; 0; 0;-1; -1; -1; -1; -1; 100; 0; 0; 0; 0; 0;0; 0; 0;0; 0; 0;0; 0; 0;1; -0.199711; -2.05455; -1.5; 0; 0; 0; -3.79452; -42.5209; -3.79452; 670; 228; 1024; 1024; 1024; 204; 1024; 1024; 1024; 0; 3; 0; 1300; 15; 9; 0.450461; 0; 0; 0; -0.399423; -2.67091; -2.55; 
114;121;2019/06/21 14:29:45;455; 357.6; 7.9754; 455; 356.545; 0; 2; 1; -0.199491; -2.05782; -1.83192;-0.199645; -2.05553; -1.83585;0; 0; 0;0; 0; 0;-1; -1; -1; -1; -1; 100; 0; 0; 0; 0; 0;0; 0; 0;0; 0; 0;0; 0; 0;1; -0.199645; -2.05553; -1.5; 0; 0; 0; -3.79326; -42.5412; -3.79326; 670; 228; 1024; 1024; 1024; 204; 1024; 1024; 1024; 0; 3; 0; 1300; 15; 9; 0.0166841; 0; 0; 0; -0.399291; -2.67219; -2.55; 
115;122;2019/06/21 14:29:45;455; 357.6; 7.99727; 455; 357.6; 0; 3; 1; -0.198946; -2.05219; -1.82691;-0.199435; -2.05453; -1.83317;0; 0; 0;0; 0; 0;-1; -1; -1; -1; -1; 100; 0; 0; 0; 0; 0;0; 0; 0;0; 0; 0;0; 0; 0;1; -0.199435; -2.05453; -1.5; 0; 0; 0; -3.78927; -42.5205; -3.78927; 670; 228; 1024; 1024; 1024; 204; 1024; 1024; 1024; 0; 3; 0; 1300; 15; 9; 0.0166829; 0; 0; 0; -0.398871; -2.67089; -2.55; 
116;123;2019/06/21 14:29:45;455; 357.6; 8.01071; 455; 357.6; 0; 4; 1; -0.198612; -2.04875; -1.82385;-0.199188; -2.05279; -1.83037;0; 0; 0;0; 0; 0;-1; -1; -1; -1; -1; 100; 0; 0; 0; 0; 0;0; 0; 0;0; 0; 0;0; 0; 0;1; -0.199188; -2.05279; -1.5; 0; 0; 0; -3.78458; -42.4846; -3.78458; 670; 228; 1024; 1024; 1024; 204; 1024; 1024; 1024; 0; 3; 0; 1300; 15; 9; 0.0166841; 0; 0; 0; -0.398377; -2.66863; -2.55; 
117;124;2019/06/21 14:29:45;455; 357.6; 7.98057; 455; 357.6; 0; 5; 1; -0.199362; -2.05649; -1.83074;-0.19924; -2.0539; -1.83048;0; 0; 0;0; 0; 0;-1; -1; -1; -1; -1; 100; 0; 0; 0; 0; 0;0; 0; 0;0; 0; 0;0; 0; 0;1; -0.19924; -2.0539; -1.5; 0; 0; 0; -3.78557; -42.5075; -3.78557; 670; 228; 1024; 1024; 1024; 204; 1024; 1024; 1024; 0; 3; 0; 1300; 15; 9; 0.0166841; 0; 0; 0; -0.398481; -2.67007; -2.55; 
118;125;2019/06/21 14:29:45;455; 357.6; 7.98323; 455; 357.6; 0; 6; 1; -0.199295; -2.0558; -1.83012;-0.199257; -2.05447; -1.83037;0; 0; 0;0; 0; 0;-1; -1; -1; -1; -1; 100; 0; 0; 0; 0; 0;0; 0; 0;0; 0; 0;0; 0; 0;1; -0.199257; -2.05447; -1.5; 0; 0; 0; -3.78588; -42.5193; -3.78588; 670; 228; 1024; 1024; 1024; 204; 1024; 1024; 1024; 0; 3; 0; 1300; 15; 9; 0.0166838; 0; 0; 0; -0.398514; -2.67081; -2.55; 
119;126;2019/06/21 14:29:45;455.128; 357.692; 8.01883; 455; 357.6; 0; 7; 1; -0.199209; -2.04716; -1.82169;-0.199242; -2.05228; -1.82777;0; 0; 0;0; 0; 0;-1; -1; -1; -1; -1; 100; 0; 0; 0; 0; 0;0; 0; 0;0; 0; 0;0; 0; 0;1; -0.199242; -2.05228; -1.5; 0; 0; 0; -3.78561; -42.4739; -3.78561; 670; 228; 1024; 1024; 1024; 204; 1024; 1024; 1024; 0; 3; 0; 1300; 15; 9; 0.0166831; 0; 0; 0; -0.398485; -2.66796; -2.55; 
120;127;2019/06/21 14:29:45;455.158; 357.895; 7.98803; 455.128; 357.692; 0; 8; 1; -0.200162; -2.05611; -1.82802;-0.199518; -2.05343; -1.82784;0.00331892; 0.0220203; 0.0905494;0.0132622; 0.0879915; 0.361829;-1; -1; -1; -1; -1; 100; 0; 0; 0; 0; 0;0; 0; 0;0; 0; 0;0; 0; 0;1; -0.199518; -2.05343; -1.5; 0; 0; 0; -3.75932; -42.1471; -3.75932; 670; 228; 1024; 1024; 1024; 204; 1024; 1024; 1024; 0; 3; 0; 1300; 15; 9; 0.0166841; 0; 0; 0; -0.399037; -2.66945; -2.55; 
121;128;2019/06/21 14:29:45;455; 357.6; 7.98804; 455.167; 358.042; 0; 9; 1; -0.199176; -2.05456; -1.82902;-0.199416; -2.05377; -1.8282;0.00207096; 0.0162513; 0.0741962;0.0162326; 0.117733; 0.513577;-1; -1; -1; -1; -1; 100; 0; 0; 0; 0; 0;0; 0; 0;0; 0; 0;0; 0; 0;1; -0.199416; -2.05377; -1.5; 0; 0; 0; -3.76922; -42.246; -3.76922; 670; 228; 1024; 1024; 1024; 204; 1024; 1024; 1024; 0; 3; 0; 1300; 15; 9; 0.0166838; 0; 0; 0; -0.398831; -2.6699; -2.55; 
122;129;2019/06/21 14:29:45;455; 357.6; 7.98196; 455.009; 357.724; 0; 10; 1; -0.199327; -2.05613; -1.83041;-0.199389; -2.05447; -1.82886;0.000440766; 0.00303237; 0.0505497;0.0115008; 0.0827569; 0.510137;-1; -1; -1; -1; -1; 100; 0; 0; 0; 0; 0;0; 0; 0;0; 0; 0;0; 0; 0;1; -0.199389; -2.05447; -1.5; 0; 0; 0; -3.7842; -42.4711; -3.7842; 670; 228; 1024; 1024; 1024; 204; 1024; 1024; 1024; 0; 3; 0; 1300; 15; 9; 0.0166841; 0; 0; 0; -0.398778; -2.67082; -2.55; 
123;130;2019/06/21 14:29:45;455; 357.6; 7.96907; 455.008; 357.699; 0; 11; 1; -0.19965; -2.05945; -1.83338;-0.199467; -2.05597; -1.83022;-0.000641561; -0.00643861; 0.0313868;0.00433687; 0.023926; 0.431502;-1; -1; -1; -1; -1; 100; 0; 0; 0; 0; 0;0; 0; 0;0; 0; 0;0; 0; 0;1; -0.199467; -2.05597; -1.5; 0; 0; 0; -3.79597; -42.6528; -3.79597; 670; 228; 1024; 1024; 1024; 204; 1024; 1024; 1024; 0; 3; 0; 1300; 15; 9; 0.0166831; 0; 0; 0; -0.398934; -2.67276; -2.55; 
124;131;2019/06/21 14:29:45;455; 357.6; 7.97401; 455.006; 357.677; 0; 12; 1; -0.199526; -2.05818; -1.83224;-0.199485; -2.05663; -1.83082;-0.00129554; -0.0124946; 0.0170339;-0.00257475; -0.0355719; 0.326967;-1; -1; -1; -1; -1; 100; 0; 0; 0; 0; 0;0; 0; 0;0; 0; 0;0; 0; 0;1; -0.199485; -2.05663; -1.5; 0; 0; 0; -3.80252; -42.763; -3.80252; 670; 228; 1024; 1024; 1024; 204; 1024; 1024; 1024; 0; 3; 0; 1300; 15; 9; 0.0166841; 0; 0; 0; -0.39897; -2.67362; -2.55; 
125;132;2019/06/21 14:29:45;455; 357.6; 7.98802; 455.005; 357.658; 0; 13; 1; -0.199176; -2.05457; -1.82903;-0.199392; -2.05601; -1.83029;-0.00137579; -0.0224245; 0.000162263;-0.00704237; -0.110949; 0.196829;-1; -1; -1; -1; -1; 100; 0; 0; 0; 0; 0;0; 0; 0;0; 0; 0;0; 0; 0;1; -0.199392; -2.05601; -1.5; 0; 0; 0; -3.80152; -42.9082; -3.80152; 670; 228; 1024; 1024; 1024; 204; 1024; 1024; 1024; 0; 3; 0; 1300; 15; 9; 0.0166838; 0; 0; 0; -0.398784; -2.67282; -2.55; 
126;133;2019/06/21 14:29:45;455; 357.6; 7.96727; 455.001; 357.642; 0; 14; 1; -0.199695; -2.05992; -1.83379;-0.199483; -2.05718; -1.83134;-0.000684179; -0.0284712; -0.0138588;-0.0202215; -0.26833; -0.29911;-1; -1; -1; -1; -1; 100; 0; 0; 0; 0; 0;0; 0; 0;0; 0; 0;0; 0; 0;1; -0.199483; -2.05718; -1.5; 0; 0; 0; -3.79668; -43.0287; -3.79668; 670; 228; 1024; 1024; 1024; 204; 1024; 1024; 1024; 0; 3; 0; 1300; 15; 9; 0.0166831; 0; 0; 0; -0.398966; -2.67434; -2.55; 
127;134;2019/06/21 14:29:45;455; 357.6; 7.99443; 454.996; 357.624; 0; 15; 1; -0.199016; -2.05292; -1.82756;-0.199343; -2.05591; -1.8302;-0.000120767; -0.0256256; -0.0163318;-0.0208909; -0.328335; -0.541208;-1; -1; -1; -1; -1; 100; 0; 0; 0; 0; 0;0; 0; 0;0; 0; 0;0; 0; 0;1; -0.199343; -2.05591; -1.5; 0; 0; 0; -3.78866; -42.957; -3.78866; 670; 228; 1024; 1024; 1024; 204; 1024; 1024; 1024; 0; 3; 0; 1300; 15; 9; 0.0166841; 0; 0; 0; -0.398686; -2.67268; -2.55; 
128;135;2019/06/21 14:29:45;455; 357.6; 7.9797; 454.995; 357.613; 0; 16; 1; -0.199384; -2.05671; -1.83093;-0.199355; -2.05615; -1.83042;6.24662e-05; -0.0220557; -0.016034;-0.0140462; -0.297251; -0.590789;-1; -1; -1; -1; -1; 100; 0; 0; 0; 0; 0;0; 0; 0;0; 0; 0;0; 0; 0;1; -0.199355; -2.05615; -1.5; 0; 0; 0; -3.78716; -42.9051; -3.78716; 670; 228; 1024; 1024; 1024; 204; 1024; 1024; 1024; 0; 3; 0; 1300; 15; 9; 0.0166838; 0; 0; 0; -0.398711; -2.67299; -2.55; 
129;136;2019/06/21 14:29:45;455; 357.6; 7.97969; 454.995; 357.607; 0; 17; 1; -0.199384; -2.05671; -1.83094;-0.199364; -2.05632; -1.83058;0.000450294; -0.0146263; -0.0110618;-0.00406478; -0.211067; -0.524093;-1; -1; -1; -1; -1; 100; 0; 0; 0; 0; 0;0; 0; 0;0; 0; 0;0; 0; 0;1; -0.199364; -2.05632; -1.5; 0; 0; 0; -3.78364; -42.7904; -3.78364; 670; 228; 1024; 1024; 1024; 204; 1024; 1024; 1024; 0; 3; 0; 1300; 15; 9; 0.0166841; 0; 0; 0; -0.398728; -2.67321; -2.55; 
130;137;2019/06/21 14:29:45;454.872; 357.692; 7.96998; 454.995; 357.604; 0; 18; 1; -0.198824; -2.0597; -1.83285;-0.199202; -2.05733; -1.83126;0.00140044; -0.0115796; -0.0083796;0.00833407; -0.122984; -0.416006;-1; -1; -1; -1; -1; 100; 0; 0; 0; 0; 0;0; 0; 0;0; 0; 0;0; 0; 0;1; -0.199202; -2.05733; -1.5; 0; 0; 0; -3.77153; -42.7629; -3.77153; 670; 228; 1024; 1024; 1024; 204; 1024; 1024; 1024; 0; 3; 0; 1300; 15; 9; 0.0166831; 0; 0; 0; -0.398404; -2.67453; -2.55; 
131;138;2019/06/21 14:29:45;455; 357.6; 8.00597; 454.865; 357.696; 0; 19; 1; -0.198729; -2.04996; -1.82493;-0.19906; -2.05512; -1.82936;0.00216678; -0.0033875; -0.00133128;0.0191563; 0.00228007; -0.255572;-1; -1; -1; -1; -1; 100; 0; 0; 0; 0; 0;0; 0; 0;0; 0; 0;0; 0; 0;1; -0.19906; -2.05512; -1.5; 0; 0; 0; -3.76156; -42.5867; -3.76156; 670; 228; 1024; 1024; 1024; 204; 1024; 1024; 1024; 0; 3; 0; 1300; 15; 9; 0.0166841; 0; 0; 0; -0.39812; -2.67166; -2.55; 
132;139;2019/06/21 14:29:45;455; 357.6; 7.97741; 454.994; 357.604; 0; 20; 1; -0.199441; -2.0573; -1.83146;-0.199174; -2.05578; -1.82999;0.00253279; 0.00359792; 0.004583;0.0243484; 0.129513; -0.0796519;-1; -1; -1; -1; -1; 100; 0; 0; 0; 0; 0;0; 0; 0;0; 0; 0;0; 0; 0;1; -0.199174; -2.05578; -1.5; 0; 0; 0; -3.76025; -42.489; -3.76025; 670; 228; 1024; 1024; 1024; 204; 1024; 1024; 1024; 0; 3; 0; 1300; 15; 9; 0.0166838; 0; 0; 0; -0.398349; -2.67251; -2.55; 
133;140;2019/06/21 14:29:45;455; 357.6; 8.01194; 454.994; 357.603; 0; 21; 1; -0.198581; -2.04843; -1.82357;-0.198997; -2.05357; -1.82806;0.00290424; 0.0114809; 0.0113064;0.0266966; 0.225981; 0.062648;-1; -1; -1; -1; -1; 100; 0; 0; 0; 0; 0;0; 0; 0;0; 0; 0;0; 0; 0;1; -0.198997; -2.05357; -1.5; 0; 0; 0; -3.75334; -42.318; -3.75334; 670; 228; 1024; 1024; 1024; 204; 1024; 1024; 1024; 0; 3; 0; 1300; 15; 9; 0.0166841; 0; 0; 0; -0.397993; -2.66964; -2.55; 
134;141;2019/06/21 14:29:45;455; 357.6; 7.9967; 454.995; 357.602; 0; 22; 1; -0.19896; -2.05234; -1.82704;-0.198986; -2.0532; -1.82776;0.00322; 0.0186563; 0.0174412;0.0286352; 0.29827; 0.171353;-1; -1; -1; -1; -1; 100; 0; 0; 0; 0; 0;0; 0; 0;0; 0; 0;0; 0; 0;1; -0.198986; -2.0532; -1.5; 0; 0; 0; -3.75013; -42.196; -3.75013; 670; 228; 1024; 1024; 1024; 204; 1024; 1024; 1024; 0; 3; 0; 1300; 15; 9; 0.0166831; 0; 0; 0; -0.397971; -2.66916; -2.55; 
135;142;2019/06/21 14:29:45;454.872; 357.692; 7.97648; 454.996; 357.602; 0; 23; 1; -0.198662; -2.05802; -1.83136;-0.198888; -2.05465; -1.82884;0.00383169; 0.0178598; 0.01742;0.030693; 0.308774; 0.216623;-1; -1; -1; -1; -1; 100; 0; 0; 0; 0; 0;0; 0; 0;0; 0; 0;0; 0; 0;1; -0.198888; -2.05465; -1.5; 0; 0; 0; -3.74248; -42.2387; -3.74248; 670; 228; 1024; 1024; 1024; 204; 1024; 1024; 1024; 0; 3; 0; 1300; 15; 9; 0.0166838; 0; 0; 0; -0.397777; -2.67104; -2.55; 
136;143;2019/06/21 14:29:45;455; 357.6; 7.97616; 454.866; 357.695; 0; 24; 1; -0.199472; -2.05762; -1.83175;-0.199064; -2.05554; -1.82971;0.00285205; 0.0178773; 0.0166473;0.0242163; 0.302971; 0.229979;-1; -1; -1; -1; -1; 100; 0; 0; 0; 0; 0;0; 0; 0;0; 0; 0;0; 0; 0;1; -0.199064; -2.05554; -1.5; 0; 0; 0; -3.75511; -42.2569; -3.75511; 670; 228; 1024; 1024; 1024; 204; 1024; 1024; 1024; 0; 3; 0; 1300; 15; 9; 0.0166841; 0; 0; 0; -0.398127; -2.6722; -2.55; 
137;144;2019/06/21 14:29:45;455; 358; 7.99283; 454.997; 357.602; 0; 25; 1; -0.199056; -2.05543; -1.82657;-0.199061; -2.05551; -1.82877;0.00170683; 0.00918776; 0.0123578;0.0126918; 0.232032; 0.192688;-1; -1; -1; -1; -1; 100; 0; 0; 0; 0; 0;0; 0; 0;0; 0; 0;0; 0; 0;1; -0.199061; -2.05551; -1.5; 0; 0; 0; -3.76595; -42.3945; -3.76595; 670; 228; 1024; 1024; 1024; 204; 1024; 1024; 1024; 0; 3; 0; 1300; 15; 9; 0.0166831; 0; 0; 0; -0.398123; -2.67216; -2.55; 
138;145;2019/06/21 14:29:45;455.135; 358.108; 7.97971; 454.999; 358.009; 0; 26; 1; -0.200228; -2.05937; -1.8292;-0.199411; -2.05667; -1.8289;7.71709e-05; 0.00195242; 0.0117799;-0.00219737; 0.132644; 0.144371;-1; -1; -1; -1; -1; 100; 0; 0; 0; 0; 0;0; 0; 0;0; 0; 0;0; 0; 0;1; -0.199411; -2.05667; -1.5; 0; 0; 0; -3.78808; -42.5337; -3.78808; 670; 228; 1024; 1024; 1024; 204; 1024; 1024; 1024; 0; 3; 0; 1300; 15; 9; 0.0166841; 0; 0; 0; -0.398823; -2.67367; -2.55; 
139;146;2019/06/21 14:29:45;455; 356; 8.00853; 455.137; 358.129; 0; 27; 1; -0.198666; -2.04094; -1.82977;-0.199188; -2.05195; -1.82916;-0.000718182; 0.00765936; 0.0026903;-0.0157934; 0.064316; 0.0521932;-1; -1; -1; -1; -1; 100; 0; 0; 0; 0; 0;0; 0; 0;0; 0; 0;0; 0; 0;1; -0.199188; -2.05195; -1.5; 0; 0; 0; -3.79139; -42.3452; -3.79139; 670; 228; 1024; 1024; 1024; 204; 1024; 1024; 1024; 0; 3; 0; 1300; 15; 9; 0.0166838; 0; 0; 0; -0.398376; -2.66753; -2.55; 
140;147;2019/06/21 14:29:45;455; 354; 7.02624; 455.003; 355.991; 0; 28; 1; -0.22644; -2.31435; -2.0933;-0.207364; -2.13067; -1.9084;-0.0339085; -0.304957; -0.32063;-0.157837; -1.25453; -1.31958;-1; -1; -1; -1; -1; 100; 0; 0; 0; 0; 0;0; 0; 0;0; 0; 0;0; 0; 0;1; -0.207364; -2.13067; -1.5; 0; 0; 0; -4.26204; -48.9512; -4.26204; 670; 228; 1024; 1024; 1024; 204; 1024; 1024; 1024; 0; 3; 0; 1300; 15; 9; 0.0166841; 0; 0; 0; -0.414727; -2.76987; -2.55; 
141;148;2019/06/21 14:29:45;455; 354; 7.02624; 455.003; 353.919; 1; 0; 1; -0.22644; -2.31435; -2.0933;-0.207364; -2.13067; -1.9084;-0.0339085; -0.304957; -0.32063;-0.157837; -1.25453; -1.31958;-1; -1; -1; -1; -1; 100; 0; 0; 0; 0; 0;0; 0; 0;0; 0; 0;0; 0; 0;1; -0.207364; -2.13067; -1.5; 0; 0; 0; -4.26204; -48.9512; -4.26204; 670; 228; 1024; 1024; 1024; 204; 1024; 1024; 1024; 0; 3; 0; 1300; 15; 9; 0.0166841; 0; 0; 0; -0.414727; -2.76987; -2.55; 
142;149;2019/06/21 14:29:45;455; 354; 7.02624; 455.006; 353.839; 2; 0; 1; -0.22644; -2.31435; -2.0933;-0.207364; -2.13067; -1.9084;-0.0339085; -0.304957; -0.32063;-0.157837; -1.25453; -1.31958;-1; -1; -1; -1; -1; 100; 0; 0; 0; 0; 0;0; 0; 0;0; 0; 0;0; 0; 0;1; -0.207364; -2.13067; -1.5; 0; 0; 0; -4.26204; -48.9512; -4.26204; 670; 228; 1024; 1024; 1024; 204; 1024; 1024; 1024; 0; 3; 0; 1300; 15; 9; 0.0166841; 0; 0; 0; -0.414727; -2.76987; -2.55; 
143;150;2019/06/21 14:29:45;455; 354; 7.02624; 455.009; 353.759; 3; 0; 1; -0.22644; -2.31435; -2.0933;-0.207364; -2.13067; -1.9084;-0.0339085; -0.304957; -0.32063;-0.157837; -1.25453; -1.31958;-1; -1; -1; -1; -1; 100; 0; 0; 0; 0; 0;0; 0; 0;0; 0; 0;0; 0; 0;1; -0.207364; -2.13067; -1.5; 0; 0; 0; -4.26204; -48.9512; -4.26204; 670; 228; 1024; 1024; 1024; 204; 1024; 1024; 1024; 0; 3; 0; 1300; 15; 9; 0.0166841; 0; 0; 0; -0.414727; -2.76987; -2.55; 
144;151;2019/06/21 14:29:45;455; 354; 7.02624; 455.012; 353.68; 4; 0; 1; -0.22644; -2.31435; -2.0933;-0.207364; -2.13067; -1.9084;-0.0339085; -0.304957; -0.32063;-0.157837; -1.25453; -1.31958;-1; -1; -1; -1; -1; 100; 0; 0; 0; 0; 0;0; 0; 0;0; 0; 0;0; 0; 0;1; -0.207364; -2.13067; -1.5; 0; 0; 0; -4.26204; -48.9512; -4.26204; 670; 228; 1024; 1024; 1024; 204; 1024; 1024; 1024; 0; 3; 0; 1300; 15; 9; 0.0166841; 0; 0; 0; -0.414727; -2.76987; -2.55; 
145;152;2019/06/21 14:29:45;455; 354; 7.02624; 455.014; 353.601; 5; 0; 1; -0.22644; -2.31435; -2.0933;-0.207364; -2.13067; -1.9084;-0.0339085; -0.304957; -0.32063;-0.157837; -1.25453; -1.31958;-1; -1; -1; -1; -1; 100; 0; 0; 0; 0; 0;0; 0; 0;0; 0; 0;0; 0; 0;1; -0.207364; -2.13067; -1.5; 0; 0; 0; -4.26204; -48.9512; -4.26204; 670; 228; 1024; 1024; 1024; 204; 1024; 1024; 1024; 0; 3; 0; 1300; 15; 9; 0.0166841; 0; 0; 0; -0.414727; -2.76987; -2.55; 
146;153;2019/06/21 14:29:45;455; 354; 7.02624; 455.017; 353.522; 6; 0; 1; -0.22644; -2.31435; -2.0933;-0.207364; -2.13067; -1.9084;-0.0339085; -0.304957; -0.32063;-0.157837; -1.25453; -1.31958;-1; -1; -1; -1; -1; 100; 0; 0; 0; 0; 0;0; 0; 0;0; 0; 0;0; 0; 0;1; -0.207364; -2.13067; -1.5; 0; 0; 0; -4.26204; -48.9512; -4.26204; 670; 228; 1024; 1024; 1024; 204; 1024; 1024; 1024; 0; 3; 0; 1300; 15; 9; 0.0166841; 0; 0; 0; -0.414727; -2.76987; -2.55; 
147;154;2019/06/21 14:29:45;455; 354; 7.02624; 455.02; 353.444; 7; 0; 1; -0.22644; -2.31435; -2.0933;-0.207364; -2.13067; -1.9084;-0.0339085; -0.304957; -0.32063;-0.157837; -1.25453; -1.31958;-1; -1; -1; -1; -1; 100; 0; 0; 0; 0; 0;0; 0; 0;0; 0; 0;0; 0; 0;1; -0.207364; -2.13067; -1.5; 0; 0; 0; -4.26204; -48.9512; -4.26204; 670; 228; 1024; 1024; 1024; 204; 1024; 1024; 1024; 0; 3; 0; 1300; 15; 9; 0.0166841; 0; 0; 0; -0.414727; -2.76987; -2.55; 
148;155;2019/06/21 14:29:45;455; 354; 7.02624; 455.023; 353.366; 8; 0; 1; -0.22644; -2.31435; -2.0933;-0.207364; -2.13067; -1.9084;-0.0339085; -0.304957; -0.32063;-0.157837; -1.25453; -1.31958;-1; -1; -1; -1; -1; 100; 0; 0; 0; 0; 0;0; 0; 0;0; 0; 0;0; 0; 0;1; -0.207364; -2.13067; -1.5; 0; 0; 0; -4.26204; -48.9512; -4.26204; 670; 228; 1024; 1024; 1024; 204; 1024; 1024; 1024; 0; 3; 0; 1300; 15; 9; 0.0166841; 0; 0; 0; -0.414727; -2.76987; -2.55; 
149;156;2019/06/21 14:29:45;455; 354; 7.02624; 455.026; 353.289; 9; 0; 1; -0.22644; -2.31435; -2.0933;-0.207364; -2.13067; -1.9084;-0.0339085; -0.304957; -0.32063;-0.157837; -1.25453; -1.31958;-1; -1; -1; -1; -1; 100; 0; 0; 0; 0; 0;0; 0; 0;0; 0; 0;0; 0; 0;1; -0.207364; -2.13067; -1.5; 0; 0; 0; -4.26204; -48.9512; -4.26204; 670; 228; 1024; 1024; 1024; 204; 1024; 1024; 1024; 0; 3; 0; 1300; 15; 9; 0.0166841; 0; 0; 0; -0.414727; -2.76987; -2.55; 
