ID;RS_ID;time;imLx_drone; imLy_drone; disparity_drone; imLx_pred_drone; imLy_pred_drone; n_frames_lost_drone; n_frames_tracking_drone; foundL_drone; posX_drone; posY_drone; posZ_drone; sposX_drone; sposY_drone; sposZ_drone; svelX_drone; svelY_drone; svelZ_drone; saccX_drone; saccY_drone; saccZ_drone; imLx_insect; imLy_insect; disparity_insect; imLx_pred_insect; imLy_pred_insect; n_frames_lost_insect; n_frames_tracking_insect; foundL_insect; posX_insect; posY_insect; posZ_insect; sposX_insect; sposY_insect; sposZ_insect; svelX_insect; svelY_insect; svelZ_insect; saccX_insect; saccY_insect; saccZ_insect; valid; posErrX; posErrY; posErrZ; velX; velY; velZ; accX; accY; accZ; hoverthrottle; autoThrottle; autoRoll; autoPitch; autoYaw; joyThrottle; joyRoll; joyPitch; joyYaw; joyArmSwitch; joyModeSwitch; joyTakeoffSwitch; throttleP; throttleI; throttleD; dt; dx; dy; dz; velx_sp; vely_sp; velz_sp;
0;1;2019/06/21 14:33:54;-1; -1; -1; -1; -1; 100; 0; 0; 0; 0; 0;0; 0; 0;0; 0; 0;0; 0; 0;-1; -1; -1; -1; -1; 100; 0; 0; 0; 0; 0;0; 0; 0;0; 0; 0;0; 0; 0;0; 0; 0; 0; 0; 0; 0; 0; 0; 0; 670; 228; 1024; 1024; 1024; 204; 1024; 1024; 1024; 0; 3; 0; 1300; 15; 9; 0; 0; 0; 0; 0; 0; 0; 
1;7;2019/06/21 14:33:54;-1; -1; -1; -1; -1; 100; 0; 0; 0; 0; 0;0; 0; 0;0; 0; 0;0; 0; 0;-1; -1; -1; -1; -1; 100; 0; 0; 0; 0; 0;0; 0; 0;0; 0; 0;0; 0; 0;0; 0; 0; 0; 0; 0; 0; 0; 0; 0; 670; 228; 1024; 1024; 1024; 204; 1024; 1024; 1024; 0; 3; 0; 1300; 15; 9; 0; 0; 0; 0; 0; 0; 0; 
2;8;2019/06/21 14:33:54;-1; -1; -1; -1; -1; 100; 0; 0; 0; 0; 0;0; 0; 0;0; 0; 0;0; 0; 0;-1; -1; -1; -1; -1; 100; 0; 0; 0; 0; 0;0; 0; 0;0; 0; 0;0; 0; 0;0; 0; 0; 0; 0; 0; 0; 0; 0; 0; 670; 228; 1024; 1024; 1024; 204; 1024; 1024; 1024; 0; 3; 0; 1300; 15; 9; 0; 0; 0; 0; 0; 0; 0; 
3;9;2019/06/21 14:33:54;-1; -1; -1; -1; -1; 100; 0; 0; 0; 0; 0;0; 0; 0;0; 0; 0;0; 0; 0;-1; -1; -1; -1; -1; 100; 0; 0; 0; 0; 0;0; 0; 0;0; 0; 0;0; 0; 0;0; 0; 0; 0; 0; 0; 0; 0; 0; 0; 670; 228; 1024; 1024; 1024; 204; 1024; 1024; 1024; 0; 3; 0; 1300; 15; 9; 0; 0; 0; 0; 0; 0; 0; 
4;10;2019/06/21 14:33:54;-1; -1; -1; -1; -1; 101; 0; 0; 0; 0; 0;0; 0; 0;0; 0; 0;0; 0; 0;-1; -1; -1; -1; -1; 100; 0; 0; 0; 0; 0;0; 0; 0;0; 0; 0;0; 0; 0;0; 0; 0; 0; 0; 0; 0; 0; 0; 0; 670; 228; 1024; 1024; 1024; 204; 1024; 1024; 1024; 0; 3; 0; 1300; 15; 9; 0; 0; 0; 0; 0; 0; 0; 
5;11;2019/06/21 14:33:54;-1; -1; -1; -1; -1; 102; 0; 0; 0; 0; 0;0; 0; 0;0; 0; 0;0; 0; 0;-1; -1; -1; -1; -1; 100; 0; 0; 0; 0; 0;0; 0; 0;0; 0; 0;0; 0; 0;0; 0; 0; 0; 0; 0; 0; 0; 0; 0; 670; 228; 1024; 1024; 1024; 204; 1024; 1024; 1024; 0; 3; 0; 1300; 15; 9; 0; 0; 0; 0; 0; 0; 0; 
6;12;2019/06/21 14:33:54;-1; -1; -1; -1; -1; 103; 0; 0; 0; 0; 0;0; 0; 0;0; 0; 0;0; 0; 0;-1; -1; -1; -1; -1; 100; 0; 0; 0; 0; 0;0; 0; 0;0; 0; 0;0; 0; 0;0; 0; 0; 0; 0; 0; 0; 0; 0; 0; 670; 228; 1024; 1024; 1024; 204; 1024; 1024; 1024; 0; 3; 0; 1300; 15; 9; 0; 0; 0; 0; 0; 0; 0; 
7;13;2019/06/21 14:33:54;-1; -1; -1; -1; -1; 104; 0; 0; 0; 0; 0;0; 0; 0;0; 0; 0;0; 0; 0;-1; -1; -1; -1; -1; 100; 0; 0; 0; 0; 0;0; 0; 0;0; 0; 0;0; 0; 0;0; 0; 0; 0; 0; 0; 0; 0; 0; 0; 670; 228; 1024; 1024; 1024; 204; 1024; 1024; 1024; 0; 3; 0; 1300; 15; 9; 0; 0; 0; 0; 0; 0; 0; 
8;14;2019/06/21 14:33:54;-1; -1; -1; -1; -1; 105; 0; 0; 0; 0; 0;0; 0; 0;0; 0; 0;0; 0; 0;-1; -1; -1; -1; -1; 100; 0; 0; 0; 0; 0;0; 0; 0;0; 0; 0;0; 0; 0;0; 0; 0; 0; 0; 0; 0; 0; 0; 0; 670; 228; 1024; 1024; 1024; 204; 1024; 1024; 1024; 0; 3; 0; 1300; 15; 9; 0; 0; 0; 0; 0; 0; 0; 
9;15;2019/06/21 14:33:55;-1; -1; -1; -1; -1; 106; 0; 0; 0; 0; 0;0; 0; 0;0; 0; 0;0; 0; 0;-1; -1; -1; -1; -1; 100; 0; 0; 0; 0; 0;0; 0; 0;0; 0; 0;0; 0; 0;0; 0; 0; 0; 0; 0; 0; 0; 0; 0; 670; 228; 1024; 1024; 1024; 204; 1024; 1024; 1024; 0; 3; 0; 1300; 15; 9; 0; 0; 0; 0; 0; 0; 0; 
10;16;2019/06/21 14:33:55;-1; -1; -1; -1; -1; 107; 0; 0; 0; 0; 0;0; 0; 0;0; 0; 0;0; 0; 0;-1; -1; -1; -1; -1; 100; 0; 0; 0; 0; 0;0; 0; 0;0; 0; 0;0; 0; 0;0; 0; 0; 0; 0; 0; 0; 0; 0; 0; 670; 228; 1024; 1024; 1024; 204; 1024; 1024; 1024; 0; 3; 0; 1300; 15; 9; 0; 0; 0; 0; 0; 0; 0; 
11;17;2019/06/21 14:33:55;-1; -1; -1; -1; -1; 108; 0; 0; 0; 0; 0;0; 0; 0;0; 0; 0;0; 0; 0;-1; -1; -1; -1; -1; 100; 0; 0; 0; 0; 0;0; 0; 0;0; 0; 0;0; 0; 0;0; 0; 0; 0; 0; 0; 0; 0; 0; 0; 670; 228; 1024; 1024; 1024; 204; 1024; 1024; 1024; 0; 3; 0; 1300; 15; 9; 0; 0; 0; 0; 0; 0; 0; 
12;18;2019/06/21 14:33:55;-1; -1; -1; -1; -1; 109; 0; 0; 0; 0; 0;0; 0; 0;0; 0; 0;0; 0; 0;-1; -1; -1; -1; -1; 100; 0; 0; 0; 0; 0;0; 0; 0;0; 0; 0;0; 0; 0;0; 0; 0; 0; 0; 0; 0; 0; 0; 0; 670; 228; 1024; 1024; 1024; 204; 1024; 1024; 1024; 0; 3; 0; 1300; 15; 9; 0; 0; 0; 0; 0; 0; 0; 
13;19;2019/06/21 14:33:55;-1; -1; -1; -1; -1; 110; 0; 0; 0; 0; 0;0; 0; 0;0; 0; 0;0; 0; 0;-1; -1; -1; -1; -1; 100; 0; 0; 0; 0; 0;0; 0; 0;0; 0; 0;0; 0; 0;0; 0; 0; 0; 0; 0; 0; 0; 0; 0; 670; 228; 1024; 1024; 1024; 204; 1024; 1024; 1024; 0; 3; 0; 1300; 15; 9; 0; 0; 0; 0; 0; 0; 0; 
14;20;2019/06/21 14:33:55;-1; -1; -1; -1; -1; 111; 0; 0; 0; 0; 0;0; 0; 0;0; 0; 0;0; 0; 0;-1; -1; -1; -1; -1; 100; 0; 0; 0; 0; 0;0; 0; 0;0; 0; 0;0; 0; 0;0; 0; 0; 0; 0; 0; 0; 0; 0; 0; 670; 228; 1024; 1024; 1024; 204; 1024; 1024; 1024; 0; 3; 0; 1300; 15; 9; 0; 0; 0; 0; 0; 0; 0; 
15;21;2019/06/21 14:33:55;-1; -1; -1; -1; -1; 112; 0; 0; 0; 0; 0;0; 0; 0;0; 0; 0;0; 0; 0;-1; -1; -1; -1; -1; 100; 0; 0; 0; 0; 0;0; 0; 0;0; 0; 0;0; 0; 0;0; 0; 0; 0; 0; 0; 0; 0; 0; 0; 670; 228; 1024; 1024; 1024; 204; 1024; 1024; 1024; 0; 3; 0; 1300; 15; 9; 0; 0; 0; 0; 0; 0; 0; 
16;22;2019/06/21 14:33:55;-1; -1; -1; -1; -1; 113; 0; 0; 0; 0; 0;0; 0; 0;0; 0; 0;0; 0; 0;-1; -1; -1; -1; -1; 100; 0; 0; 0; 0; 0;0; 0; 0;0; 0; 0;0; 0; 0;0; 0; 0; 0; 0; 0; 0; 0; 0; 0; 670; 228; 1024; 1024; 1024; 204; 1024; 1024; 1024; 0; 3; 0; 1300; 15; 9; 0; 0; 0; 0; 0; 0; 0; 
17;23;2019/06/21 14:33:55;-1; -1; -1; -1; -1; 114; 0; 0; 0; 0; 0;0; 0; 0;0; 0; 0;0; 0; 0;-1; -1; -1; -1; -1; 100; 0; 0; 0; 0; 0;0; 0; 0;0; 0; 0;0; 0; 0;0; 0; 0; 0; 0; 0; 0; 0; 0; 0; 670; 228; 1024; 1024; 1024; 204; 1024; 1024; 1024; 0; 3; 0; 1300; 15; 9; 0; 0; 0; 0; 0; 0; 0; 
18;24;2019/06/21 14:33:55;-1; -1; -1; -1; -1; 115; 0; 0; 0; 0; 0;0; 0; 0;0; 0; 0;0; 0; 0;-1; -1; -1; -1; -1; 100; 0; 0; 0; 0; 0;0; 0; 0;0; 0; 0;0; 0; 0;0; 0; 0; 0; 0; 0; 0; 0; 0; 0; 670; 228; 1024; 1024; 1024; 204; 1024; 1024; 1024; 0; 3; 0; 1300; 15; 9; 0; 0; 0; 0; 0; 0; 0; 
19;25;2019/06/21 14:33:55;-1; -1; -1; -1; -1; 116; 0; 0; 0; 0; 0;0; 0; 0;0; 0; 0;0; 0; 0;-1; -1; -1; -1; -1; 100; 0; 0; 0; 0; 0;0; 0; 0;0; 0; 0;0; 0; 0;0; 0; 0; 0; 0; 0; 0; 0; 0; 0; 670; 228; 1024; 1024; 1024; 204; 1024; 1024; 1024; 0; 3; 0; 1300; 15; 9; 0; 0; 0; 0; 0; 0; 0; 
20;26;2019/06/21 14:33:55;-1; -1; -1; -1; -1; 117; 0; 0; 0; 0; 0;0; 0; 0;0; 0; 0;0; 0; 0;-1; -1; -1; -1; -1; 100; 0; 0; 0; 0; 0;0; 0; 0;0; 0; 0;0; 0; 0;0; 0; 0; 0; 0; 0; 0; 0; 0; 0; 670; 228; 1024; 1024; 1024; 204; 1024; 1024; 1024; 0; 3; 0; 1300; 15; 9; 0; 0; 0; 0; 0; 0; 0; 
21;27;2019/06/21 14:33:55;-1; -1; -1; -1; -1; 118; 0; 0; 0; 0; 0;0; 0; 0;0; 0; 0;0; 0; 0;-1; -1; -1; -1; -1; 100; 0; 0; 0; 0; 0;0; 0; 0;0; 0; 0;0; 0; 0;0; 0; 0; 0; 0; 0; 0; 0; 0; 0; 670; 228; 1024; 1024; 1024; 204; 1024; 1024; 1024; 0; 3; 0; 1300; 15; 9; 0; 0; 0; 0; 0; 0; 0; 
22;28;2019/06/21 14:33:55;-1; -1; -1; -1; -1; 119; 0; 0; 0; 0; 0;0; 0; 0;0; 0; 0;0; 0; 0;-1; -1; -1; -1; -1; 100; 0; 0; 0; 0; 0;0; 0; 0;0; 0; 0;0; 0; 0;0; 0; 0; 0; 0; 0; 0; 0; 0; 0; 670; 228; 1024; 1024; 1024; 204; 1024; 1024; 1024; 0; 3; 0; 1300; 15; 9; 0; 0; 0; 0; 0; 0; 0; 
23;29;2019/06/21 14:33:55;-1; -1; -1; -1; -1; 120; 0; 0; 0; 0; 0;0; 0; 0;0; 0; 0;0; 0; 0;-1; -1; -1; -1; -1; 100; 0; 0; 0; 0; 0;0; 0; 0;0; 0; 0;0; 0; 0;0; 0; 0; 0; 0; 0; 0; 0; 0; 0; 670; 228; 1024; 1024; 1024; 204; 1024; 1024; 1024; 0; 3; 0; 1300; 15; 9; 0; 0; 0; 0; 0; 0; 0; 
24;30;2019/06/21 14:33:55;-1; -1; -1; -1; -1; 121; 0; 0; 0; 0; 0;0; 0; 0;0; 0; 0;0; 0; 0;-1; -1; -1; -1; -1; 100; 0; 0; 0; 0; 0;0; 0; 0;0; 0; 0;0; 0; 0;0; 0; 0; 0; 0; 0; 0; 0; 0; 0; 670; 228; 1024; 1024; 1024; 204; 1024; 1024; 1024; 0; 3; 0; 1300; 15; 9; 0; 0; 0; 0; 0; 0; 0; 
25;31;2019/06/21 14:33:55;-1; -1; -1; -1; -1; 122; 0; 0; 0; 0; 0;0; 0; 0;0; 0; 0;0; 0; 0;-1; -1; -1; -1; -1; 100; 0; 0; 0; 0; 0;0; 0; 0;0; 0; 0;0; 0; 0;0; 0; 0; 0; 0; 0; 0; 0; 0; 0; 670; 228; 1024; 1024; 1024; 204; 1024; 1024; 1024; 0; 3; 0; 1300; 15; 9; 0; 0; 0; 0; 0; 0; 0; 
26;32;2019/06/21 14:33:55;-1; -1; -1; -1; -1; 123; 0; 0; 0; 0; 0;0; 0; 0;0; 0; 0;0; 0; 0;-1; -1; -1; -1; -1; 100; 0; 0; 0; 0; 0;0; 0; 0;0; 0; 0;0; 0; 0;0; 0; 0; 0; 0; 0; 0; 0; 0; 0; 670; 228; 1024; 1024; 1024; 204; 1024; 1024; 1024; 0; 3; 0; 1300; 15; 9; 0; 0; 0; 0; 0; 0; 0; 
27;33;2019/06/21 14:33:55;-1; -1; -1; -1; -1; 124; 0; 0; 0; 0; 0;0; 0; 0;0; 0; 0;0; 0; 0;-1; -1; -1; -1; -1; 100; 0; 0; 0; 0; 0;0; 0; 0;0; 0; 0;0; 0; 0;0; 0; 0; 0; 0; 0; 0; 0; 0; 0; 670; 228; 1024; 1024; 1024; 204; 1024; 1024; 1024; 0; 3; 0; 1300; 15; 9; 0; 0; 0; 0; 0; 0; 0; 
28;34;2019/06/21 14:33:55;-1; -1; -1; -1; -1; 125; 0; 0; 0; 0; 0;0; 0; 0;0; 0; 0;0; 0; 0;-1; -1; -1; -1; -1; 100; 0; 0; 0; 0; 0;0; 0; 0;0; 0; 0;0; 0; 0;0; 0; 0; 0; 0; 0; 0; 0; 0; 0; 670; 228; 1024; 1024; 1024; 204; 1024; 1024; 1024; 0; 3; 0; 1300; 15; 9; 0; 0; 0; 0; 0; 0; 0; 
29;35;2019/06/21 14:33:55;-1; -1; -1; -1; -1; 126; 0; 0; 0; 0; 0;0; 0; 0;0; 0; 0;0; 0; 0;-1; -1; -1; -1; -1; 100; 0; 0; 0; 0; 0;0; 0; 0;0; 0; 0;0; 0; 0;0; 0; 0; 0; 0; 0; 0; 0; 0; 0; 670; 228; 1024; 1024; 1024; 204; 1024; 1024; 1024; 0; 3; 0; 1300; 15; 9; 0; 0; 0; 0; 0; 0; 0; 
30;36;2019/06/21 14:33:55;-1; -1; -1; -1; -1; 127; 0; 0; 0; 0; 0;0; 0; 0;0; 0; 0;0; 0; 0;-1; -1; -1; -1; -1; 100; 0; 0; 0; 0; 0;0; 0; 0;0; 0; 0;0; 0; 0;0; 0; 0; 0; 0; 0; 0; 0; 0; 0; 670; 228; 1024; 1024; 1024; 204; 1024; 1024; 1024; 0; 3; 0; 1300; 15; 9; 0; 0; 0; 0; 0; 0; 0; 
31;37;2019/06/21 14:33:55;-1; -1; -1; -1; -1; 128; 0; 0; 0; 0; 0;0; 0; 0;0; 0; 0;0; 0; 0;-1; -1; -1; -1; -1; 100; 0; 0; 0; 0; 0;0; 0; 0;0; 0; 0;0; 0; 0;0; 0; 0; 0; 0; 0; 0; 0; 0; 0; 670; 228; 1024; 1024; 1024; 204; 1024; 1024; 1024; 0; 3; 0; 1300; 15; 9; 0; 0; 0; 0; 0; 0; 0; 
32;38;2019/06/21 14:33:55;-1; -1; -1; -1; -1; 129; 0; 0; 0; 0; 0;0; 0; 0;0; 0; 0;0; 0; 0;-1; -1; -1; -1; -1; 100; 0; 0; 0; 0; 0;0; 0; 0;0; 0; 0;0; 0; 0;0; 0; 0; 0; 0; 0; 0; 0; 0; 0; 670; 228; 1024; 1024; 1024; 204; 1024; 1024; 1024; 0; 3; 0; 1300; 15; 9; 0; 0; 0; 0; 0; 0; 0; 
33;39;2019/06/21 14:33:55;455; 358.222; 8.01367; -1; -1; 0; 1; 1; -0.198538; -2.05124; -1.82106;-0.198538; -2.05124; -1.82106;0; 0; 0;0; 0; 0;-1; -1; -1; -1; -1; 100; 0; 0; 0; 0; 0;0; 0; 0;0; 0; 0;0; 0; 0;1; -0.198538; -2.05124; -1.5; 0; 0; 0; -3.77223; -42.4525; -3.77223; 670; 228; 1024; 1024; 1024; 204; 1024; 1024; 1024; 0; 3; 0; 1300; 15; 9; 0.650665; 0; 0; 0; -0.397077; -2.66661; -2.55; 
34;40;2019/06/21 14:33:55;455; 357.6; 8.01023; 455; 358.222; 0; 2; 1; -0.198624; -2.04887; -1.82395;-0.198564; -2.05053; -1.82193;0; 0; 0;0; 0; 0;-1; -1; -1; -1; -1; 100; 0; 0; 0; 0; 0;0; 0; 0;0; 0; 0;0; 0; 0;1; -0.198564; -2.05053; -1.5; 0; 0; 0; -3.77272; -42.4378; -3.77272; 670; 228; 1024; 1024; 1024; 204; 1024; 1024; 1024; 0; 3; 0; 1300; 15; 9; 0.016684; 0; 0; 0; -0.397128; -2.66569; -2.55; 
35;41;2019/06/21 14:33:55;455; 357.6; 8.00235; 455; 357.6; 0; 3; 1; -0.198819; -2.05089; -1.82575;-0.198641; -2.05064; -1.82308;0; 0; 0;0; 0; 0;-1; -1; -1; -1; -1; 100; 0; 0; 0; 0; 0;0; 0; 0;0; 0; 0;0; 0; 0;1; -0.198641; -2.05064; -1.5; 0; 0; 0; -3.77417; -42.44; -3.77417; 670; 228; 1024; 1024; 1024; 204; 1024; 1024; 1024; 0; 3; 0; 1300; 15; 9; 0.016684; 0; 0; 0; -0.397281; -2.66583; -2.55; 
36;42;2019/06/21 14:33:55;455; 357.6; 8.00465; 455; 357.6; 0; 4; 1; -0.198762; -2.0503; -1.82523;-0.198677; -2.05054; -1.82372;0; 0; 0;0; 0; 0;-1; -1; -1; -1; -1; 100; 0; 0; 0; 0; 0;0; 0; 0;0; 0; 0;0; 0; 0;1; -0.198677; -2.05054; -1.5; 0; 0; 0; -3.77486; -42.4379; -3.77486; 670; 228; 1024; 1024; 1024; 204; 1024; 1024; 1024; 0; 3; 0; 1300; 15; 9; 0.016683; 0; 0; 0; -0.397354; -2.6657; -2.55; 
37;43;2019/06/21 14:33:55;455; 357.6; 8.00705; 455; 357.6; 0; 5; 1; -0.198703; -2.04968; -1.82468;-0.198685; -2.05028; -1.82401;0; 0; 0;0; 0; 0;-1; -1; -1; -1; -1; 100; 0; 0; 0; 0; 0;0; 0; 0;0; 0; 0;0; 0; 0;1; -0.198685; -2.05028; -1.5; 0; 0; 0; -3.77501; -42.4326; -3.77501; 670; 228; 1024; 1024; 1024; 204; 1024; 1024; 1024; 0; 3; 0; 1300; 15; 9; 0.016684; 0; 0; 0; -0.397369; -2.66536; -2.55; 
38;44;2019/06/21 14:33:55;455; 357.6; 8.00841; 455; 357.6; 0; 6; 1; -0.198669; -2.04934; -1.82437;-0.19868; -2.05; -1.82412;0; 0; 0;0; 0; 0;-1; -1; -1; -1; -1; 100; 0; 0; 0; 0; 0;0; 0; 0;0; 0; 0;0; 0; 0;1; -0.19868; -2.05; -1.5; 0; 0; 0; -3.77492; -42.4267; -3.77492; 670; 228; 1024; 1024; 1024; 204; 1024; 1024; 1024; 0; 3; 0; 1300; 15; 9; 0.016684; 0; 0; 0; -0.39736; -2.665; -2.55; 
39;45;2019/06/21 14:33:55;455; 357.6; 8.00846; 455; 357.6; 0; 7; 1; -0.198668; -2.04932; -1.82436;-0.198676; -2.0498; -1.82419;0; 0; 0;0; 0; 0;-1; -1; -1; -1; -1; 100; 0; 0; 0; 0; 0;0; 0; 0;0; 0; 0;0; 0; 0;1; -0.198676; -2.0498; -1.5; 0; 0; 0; -3.77485; -42.4226; -3.77485; 670; 228; 1024; 1024; 1024; 204; 1024; 1024; 1024; 0; 3; 0; 1300; 15; 9; 0.016684; 0; 0; 0; -0.397353; -2.66473; -2.55; 
40;46;2019/06/21 14:33:55;455; 357.6; 8.01665; 455; 357.6; 0; 8; 1; -0.198465; -2.04723; -1.8225;-0.198613; -2.04903; -1.82368;-0.00102144; 0.014682; -0.0257264;-0.00408159; 0.0586682; -0.102801;-1; -1; -1; -1; -1; 100; 0; 0; 0; 0; 0;0; 0; 0;0; 0; 0;0; 0; 0;1; -0.198613; -2.04903; -1.5; 0; 0; 0; -3.78335; -42.1729; -3.78335; 670; 228; 1024; 1024; 1024; 204; 1024; 1024; 1024; 0; 3; 0; 1300; 15; 9; 0.016683; 0; 0; 0; -0.397226; -2.66373; -2.55; 
41;47;2019/06/21 14:33:55;455; 357.6; 7.99402; 455; 357.52; 0; 9; 1; -0.199027; -2.05303; -1.82765;-0.198737; -2.05023; -1.82487;-0.000997993; 0.0104526; -0.0226139;-0.00643685; 0.0769688; -0.152044;-1; -1; -1; -1; -1; 100; 0; 0; 0; 0; 0;0; 0; 0;0; 0; 0;0; 0; 0;1; -0.198737; -2.05023; -1.5; 0; 0; 0; -3.78548; -42.2651; -3.78548; 670; 228; 1024; 1024; 1024; 204; 1024; 1024; 1024; 0; 3; 0; 1300; 15; 9; 0.016684; 0; 0; 0; -0.397474; -2.66529; -2.55; 
42;48;2019/06/21 14:33:55;455; 357.6; 8.016; 455; 357.534; 0; 10; 1; -0.198481; -2.0474; -1.82264;-0.19866; -2.04938; -1.8242;-0.000530976; 0.0109017; -0.0154957;-0.00598383; 0.0897431; -0.153145;-1; -1; -1; -1; -1; 100; 0; 0; 0; 0; 0;0; 0; 0;0; 0; 0;0; 0; 0;1; -0.19866; -2.04938; -1.5; 0; 0; 0; -3.77959; -42.2404; -3.77959; 670; 228; 1024; 1024; 1024; 204; 1024; 1024; 1024; 0; 3; 0; 1300; 15; 9; 0.016684; 0; 0; 0; -0.39732; -2.66419; -2.55; 
43;49;2019/06/21 14:33:55;455; 357.6; 8.0061; 455; 357.548; 0; 11; 1; -0.198726; -2.04993; -1.8249;-0.19868; -2.04954; -1.82441;-0.000299412; 0.00948958; -0.010907;-0.00478672; 0.0917651; -0.13547;-1; -1; -1; -1; -1; 100; 0; 0; 0; 0; 0;0; 0; 0;0; 0; 0;0; 0; 0;1; -0.19868; -2.04954; -1.5; 0; 0; 0; -3.77776; -42.2663; -3.77776; 670; 228; 1024; 1024; 1024; 204; 1024; 1024; 1024; 0; 3; 0; 1300; 15; 9; 0.016684; 0; 0; 0; -0.39736; -2.6644; -2.55; 
44;50;2019/06/21 14:33:55;455; 357.6; 8.00865; 455; 357.56; 0; 12; 1; -0.198663; -2.04927; -1.82432;-0.198675; -2.04946; -1.82438;-0.000159045; 0.00783161; -0.0076055;-0.00350756; 0.0863536; -0.111673;-1; -1; -1; -1; -1; 100; 0; 0; 0; 0; 0;0; 0; 0;0; 0; 0;0; 0; 0;1; -0.198675; -2.04946; -1.5; 0; 0; 0; -3.77633; -42.291; -3.77633; 670; 228; 1024; 1024; 1024; 204; 1024; 1024; 1024; 0; 3; 0; 1300; 15; 9; 0.016683; 0; 0; 0; -0.39735; -2.6643; -2.55; 
45;51;2019/06/21 14:33:55;455; 357.6; 8.00852; 455; 357.57; 0; 13; 1; -0.198666; -2.04931; -1.82435;-0.198672; -2.04942; -1.82437;-7.92908e-05; 0.00621377; -0.00529069;-0.00242138; 0.0766419; -0.0881451;-1; -1; -1; -1; -1; 100; 0; 0; 0; 0; 0;0; 0; 0;0; 0; 0;0; 0; 0;1; -0.198672; -2.04942; -1.5; 0; 0; 0; -3.77553; -42.3158; -3.77553; 670; 228; 1024; 1024; 1024; 204; 1024; 1024; 1024; 0; 3; 0; 1300; 15; 9; 0.016684; 0; 0; 0; -0.397344; -2.66424; -2.55; 
46;52;2019/06/21 14:33:55;455; 357.6; 8.00185; 455; 357.578; 0; 14; 1; -0.198832; -2.05102; -1.82587;-0.19872; -2.0499; -1.82482;-0.000476048; 0.000252836; -0.00772209;0.000726486; -0.0116722; 0.0190559;-1; -1; -1; -1; -1; 100; 0; 0; 0; 0; 0;0; 0; 0;0; 0; 0;0; 0; 0;1; -0.19872; -2.0499; -1.5; 0; 0; 0; -3.7802; -42.4206; -3.7802; 670; 228; 1024; 1024; 1024; 204; 1024; 1024; 1024; 0; 3; 0; 1300; 15; 9; 0.016684; 0; 0; 0; -0.39744; -2.66486; -2.55; 
47;53;2019/06/21 14:33:55;455; 357.6; 8.02108; 455; 357.584; 0; 15; 1; -0.198355; -2.0461; -1.82149;-0.198611; -2.04876; -1.82382;0.000219482; 0.00602321; -0.000423739;0.00530083; -0.0247029; 0.100104;-1; -1; -1; -1; -1; 100; 0; 0; 0; 0; 0;0; 0; 0;0; 0; 0;0; 0; 0;1; -0.198611; -2.04876; -1.5; 0; 0; 0; -3.77152; -42.3052; -3.77152; 670; 228; 1024; 1024; 1024; 204; 1024; 1024; 1024; 0; 3; 0; 1300; 15; 9; 0.016683; 0; 0; 0; -0.397221; -2.66338; -2.55; 
48;54;2019/06/21 14:33:55;455; 357.6; 8.01386; 455; 357.588; 0; 16; 1; -0.198534; -2.04794; -1.82313;-0.198588; -2.04851; -1.82361;0.000421847; 0.00706938; 0.00211036;0.0069879; -0.0301353; 0.130415;-1; -1; -1; -1; -1; 100; 0; 0; 0; 0; 0;0; 0; 0;0; 0; 0;0; 0; 0;1; -0.198588; -2.04851; -1.5; 0; 0; 0; -3.76916; -42.2835; -3.76916; 670; 228; 1024; 1024; 1024; 204; 1024; 1024; 1024; 0; 3; 0; 1300; 15; 9; 0.016684; 0; 0; 0; -0.397175; -2.66307; -2.55; 
49;55;2019/06/21 14:33:55;455; 357.6; 8.0093; 455; 357.591; 0; 17; 1; -0.198647; -2.04911; -1.82417;-0.198605; -2.04869; -1.82378;0.000551185; 0.00764087; 0.00379421;0.00759166; -0.0254685; 0.136994;-1; -1; -1; -1; -1; 100; 0; 0; 0; 0; 0;0; 0; 0;0; 0; 0;0; 0; 0;1; -0.198605; -2.04869; -1.5; 0; 0; 0; -3.76827; -42.2781; -3.76827; 670; 228; 1024; 1024; 1024; 204; 1024; 1024; 1024; 0; 3; 0; 1300; 15; 9; 0.016684; 0; 0; 0; -0.397211; -2.6633; -2.55; 
50;56;2019/06/21 14:33:55;455; 357.6; 8.00726; 455; 357.594; 0; 18; 1; -0.198698; -2.04963; -1.82463;-0.198633; -2.04897; -1.82404;0.000497849; 0.00653659; 0.0036646;0.00717987; -0.0204559; 0.12723;-1; -1; -1; -1; -1; 100; 0; 0; 0; 0; 0;0; 0; 0;0; 0; 0;0; 0; 0;1; -0.198633; -2.04897; -1.5; 0; 0; 0; -3.7693; -42.3015; -3.7693; 670; 228; 1024; 1024; 1024; 204; 1024; 1024; 1024; 0; 3; 0; 1300; 15; 9; 0.016684; 0; 0; 0; -0.397266; -2.66367; -2.55; 
51;57;2019/06/21 14:33:55;455; 357.6; 8.01769; 455; 357.596; 0; 19; 1; -0.198439; -2.04696; -1.82226;-0.198575; -2.04837; -1.8235;0.000688127; 0.0080986; 0.00567279;0.00737447; -0.00474185; 0.120147;-1; -1; -1; -1; -1; 100; 0; 0; 0; 0; 0;0; 0; 0;0; 0; 0;0; 0; 0;1; -0.198575; -2.04837; -1.5; 0; 0; 0; -3.76638; -42.2642; -3.76638; 670; 228; 1024; 1024; 1024; 204; 1024; 1024; 1024; 0; 3; 0; 1300; 15; 9; 0.016683; 0; 0; 0; -0.39715; -2.66288; -2.55; 
52;58;2019/06/21 14:33:55;455; 357.6; 8.02197; 455; 357.597; 0; 20; 1; -0.198333; -2.04587; -1.82129;-0.198502; -2.04762; -1.82284;0.00128311; 0.013947; 0.0113235;0.0114541; 0.0518757; 0.148193;-1; -1; -1; -1; -1; 100; 0; 0; 0; 0; 0;0; 0; 0;0; 0; 0;0; 0; 0;1; -0.198502; -2.04762; -1.5; 0; 0; 0; -3.75935; -42.1555; -3.75935; 670; 228; 1024; 1024; 1024; 204; 1024; 1024; 1024; 0; 3; 0; 1300; 15; 9; 0.016684; 0; 0; 0; -0.397005; -2.66191; -2.55; 
53;59;2019/06/21 14:33:55;455; 357.6; 8.01867; 455; 357.598; 0; 21; 1; -0.198415; -2.04671; -1.82204;-0.198476; -2.04735; -1.8226;0.00130742; 0.013991; 0.0116809;0.0112198; 0.0629637; 0.137285;-1; -1; -1; -1; -1; 100; 0; 0; 0; 0; 0;0; 0; 0;0; 0; 0;0; 0; 0;1; -0.198476; -2.04735; -1.5; 0; 0; 0; -3.75862; -42.1492; -3.75862; 670; 228; 1024; 1024; 1024; 204; 1024; 1024; 1024; 0; 3; 0; 1300; 15; 9; 0.016684; 0; 0; 0; -0.396952; -2.66155; -2.55; 
54;60;2019/06/21 14:33:55;455; 357.6; 8.01867; 455; 357.598; 1; 0; 1; -0.198415; -2.04671; -1.82204;-0.198476; -2.04735; -1.8226;0.00130742; 0.013991; 0.0116809;0.0112198; 0.0629637; 0.137285;-1; -1; -1; -1; -1; 100; 0; 0; 0; 0; 0;0; 0; 0;0; 0; 0;0; 0; 0;1; -0.198476; -2.04735; -1.5; 0; 0; 0; -3.75862; -42.1492; -3.75862; 670; 228; 1024; 1024; 1024; 204; 1024; 1024; 1024; 0; 3; 0; 1300; 15; 9; 0.016684; 0; 0; 0; -0.396952; -2.66155; -2.55; 
55;61;2019/06/21 14:33:55;455; 357.6; 8.01867; 455; 357.597; 2; 0; 1; -0.198415; -2.04671; -1.82204;-0.198476; -2.04735; -1.8226;0.00130742; 0.013991; 0.0116809;0.0112198; 0.0629637; 0.137285;-1; -1; -1; -1; -1; 100; 0; 0; 0; 0; 0;0; 0; 0;0; 0; 0;0; 0; 0;1; -0.198476; -2.04735; -1.5; 0; 0; 0; -3.75862; -42.1492; -3.75862; 670; 228; 1024; 1024; 1024; 204; 1024; 1024; 1024; 0; 3; 0; 1300; 15; 9; 0.016684; 0; 0; 0; -0.396952; -2.66155; -2.55; 
56;62;2019/06/21 14:33:55;455; 357.6; 8.01867; 455; 357.595; 3; 0; 1; -0.198415; -2.04671; -1.82204;-0.198476; -2.04735; -1.8226;0.00130742; 0.013991; 0.0116809;0.0112198; 0.0629637; 0.137285;-1; -1; -1; -1; -1; 100; 0; 0; 0; 0; 0;0; 0; 0;0; 0; 0;0; 0; 0;1; -0.198476; -2.04735; -1.5; 0; 0; 0; -3.75862; -42.1492; -3.75862; 670; 228; 1024; 1024; 1024; 204; 1024; 1024; 1024; 0; 3; 0; 1300; 15; 9; 0.016684; 0; 0; 0; -0.396952; -2.66155; -2.55; 
57;63;2019/06/21 14:33:55;455; 357.6; 8.01867; 455; 357.594; 4; 0; 1; -0.198415; -2.04671; -1.82204;-0.198476; -2.04735; -1.8226;0.00130742; 0.013991; 0.0116809;0.0112198; 0.0629637; 0.137285;-1; -1; -1; -1; -1; 100; 0; 0; 0; 0; 0;0; 0; 0;0; 0; 0;0; 0; 0;1; -0.198476; -2.04735; -1.5; 0; 0; 0; -3.75862; -42.1492; -3.75862; 670; 228; 1024; 1024; 1024; 204; 1024; 1024; 1024; 0; 3; 0; 1300; 15; 9; 0.016684; 0; 0; 0; -0.396952; -2.66155; -2.55; 
58;64;2019/06/21 14:33:55;455; 357.6; 8.01867; 455; 357.592; 5; 0; 1; -0.198415; -2.04671; -1.82204;-0.198476; -2.04735; -1.8226;0.00130742; 0.013991; 0.0116809;0.0112198; 0.0629637; 0.137285;-1; -1; -1; -1; -1; 100; 0; 0; 0; 0; 0;0; 0; 0;0; 0; 0;0; 0; 0;1; -0.198476; -2.04735; -1.5; 0; 0; 0; -3.75862; -42.1492; -3.75862; 670; 228; 1024; 1024; 1024; 204; 1024; 1024; 1024; 0; 3; 0; 1300; 15; 9; 0.016684; 0; 0; 0; -0.396952; -2.66155; -2.55; 
59;65;2019/06/21 14:33:55;455; 357.6; 8.01867; 455; 357.59; 6; 0; 1; -0.198415; -2.04671; -1.82204;-0.198476; -2.04735; -1.8226;0.00130742; 0.013991; 0.0116809;0.0112198; 0.0629637; 0.137285;-1; -1; -1; -1; -1; 100; 0; 0; 0; 0; 0;0; 0; 0;0; 0; 0;0; 0; 0;1; -0.198476; -2.04735; -1.5; 0; 0; 0; -3.75862; -42.1492; -3.75862; 670; 228; 1024; 1024; 1024; 204; 1024; 1024; 1024; 0; 3; 0; 1300; 15; 9; 0.016684; 0; 0; 0; -0.396952; -2.66155; -2.55; 
60;66;2019/06/21 14:33:55;455.171; 357.659; 8.0072; 455; 357.589; 0; 1; 1; -0.199763; -2.04995; -1.82445;-0.198862; -2.04813; -1.82315;0.000235878; 0.0091577; 0.00792839;0.00636031; 0.0419506; 0.093995;-1; -1; -1; -1; -1; 100; 0; 0; 0; 0; 0;0; 0; 0;0; 0; 0;0; 0; 0;1; -0.198862; -2.04813; -1.5; 0; 0; 0; -3.77614; -42.2423; -3.77614; 670; 228; 1024; 1024; 1024; 204; 1024; 1024; 1024; 0; 3; 0; 1300; 15; 9; 0.116786; 0; 0; 0; -0.397724; -2.66257; -2.55; 
61;67;2019/06/21 14:33:55;455; 357.6; 8.01257; 455.172; 357.658; 0; 2; 1; -0.198566; -2.04827; -1.82342;-0.198773; -2.04817; -1.82323;-0.000193852; 0.0065302; 0.00584692;0.00232764; 0.0229513; 0.0604982;-1; -1; -1; -1; -1; 100; 0; 0; 0; 0; 0;0; 0; 0;0; 0; 0;0; 0; 0;1; -0.198773; -2.04817; -1.5; 0; 0; 0; -3.77853; -42.285; -3.77853; 670; 228; 1024; 1024; 1024; 204; 1024; 1024; 1024; 0; 3; 0; 1300; 15; 9; 0.0166841; 0; 0; 0; -0.397546; -2.66263; -2.55; 
62;68;2019/06/21 14:33:55;455; 357.6; 8.00575; 455.002; 357.6; 0; 3; 1; -0.198735; -2.05002; -1.82498;-0.198762; -2.04873; -1.82376;-0.000373541; 0.00441162; 0.00406525;-0.000344423; 0.00952519; 0.0370994;-1; -1; -1; -1; -1; 100; 0; 0; 0; 0; 0;0; 0; 0;0; 0; 0;0; 0; 0;1; -0.198762; -2.04873; -1.5; 0; 0; 0; -3.78002; -42.3302; -3.78002; 670; 228; 1024; 1024; 1024; 204; 1024; 1024; 1024; 0; 3; 0; 1300; 15; 9; 0.016683; 0; 0; 0; -0.397524; -2.66334; -2.55; 
63;69;2019/06/21 14:33:55;455; 357.6; 8.00794; 455.002; 357.6; 0; 4; 1; -0.19868; -2.04946; -1.82448;-0.198737; -2.04895; -1.82397;-0.000548965; 0.00149897; 0.00149955;-0.0026783; -0.00747063; 0.0139217;-1; -1; -1; -1; -1; 100; 0; 0; 0; 0; 0;0; 0; 0;0; 0; 0;0; 0; 0;1; -0.198737; -2.04895; -1.5; 0; 0; 0; -3.78123; -42.3811; -3.78123; 670; 228; 1024; 1024; 1024; 204; 1024; 1024; 1024; 0; 3; 0; 1300; 15; 9; 0.0166841; 0; 0; 0; -0.397475; -2.66363; -2.55; 
64;70;2019/06/21 14:33:55;455; 357.6; 8.02336; 455.002; 357.6; 0; 5; 1; -0.198299; -2.04552; -1.82097;-0.198606; -2.04792; -1.82307;-0.000536114; 0.000308711; 0.000431955;-0.00524171; -0.031731; -0.0134078;-1; -1; -1; -1; -1; 100; 0; 0; 0; 0; 0;0; 0; 0;0; 0; 0;0; 0; 0;1; -0.198606; -2.04792; -1.5; 0; 0; 0; -3.7786; -42.3788; -3.7786; 670; 228; 1024; 1024; 1024; 204; 1024; 1024; 1024; 0; 3; 0; 1300; 15; 9; 0.0166839; 0; 0; 0; -0.397212; -2.66229; -2.55; 
65;71;2019/06/21 14:33:55;455; 357.6; 8.0003; 455.002; 357.6; 0; 6; 1; -0.19887; -2.05141; -1.82622;-0.198685; -2.04897; -1.82402;-0.000739367; -0.00304442; -0.00257558;-0.00723441; -0.0530745; -0.0365285;-1; -1; -1; -1; -1; 100; 0; 0; 0; 0; 0;0; 0; 0;0; 0; 0;0; 0; 0;1; -0.198685; -2.04897; -1.5; 0; 0; 0; -3.78204; -42.4539; -3.78204; 670; 228; 1024; 1024; 1024; 204; 1024; 1024; 1024; 0; 3; 0; 1300; 15; 9; 0.0166841; 0; 0; 0; -0.39737; -2.66366; -2.55; 
66;72;2019/06/21 14:33:55;455; 357.6; 8.00284; 455.001; 357.6; 0; 7; 1; -0.198807; -2.05076; -1.82564;-0.198722; -2.0495; -1.8245;0.000117164; -0.00731993; -0.00694336;-0.00481502; -0.097688; -0.0813434;-1; -1; -1; -1; -1; 100; 0; 0; 0; 0; 0;0; 0; 0;0; 0; 0;0; 0; 0;1; -0.198722; -2.0495; -1.5; 0; 0; 0; -3.7746; -42.5331; -3.7746; 670; 228; 1024; 1024; 1024; 204; 1024; 1024; 1024; 0; 3; 0; 1300; 15; 9; 0.016683; 0; 0; 0; -0.397443; -2.66436; -2.55; 
67;73;2019/06/21 14:33:55;455; 357.6; 8.0097; 454.998; 357.599; 0; 8; 1; -0.198637; -2.04901; -1.82408;-0.198696; -2.04936; -1.82437;0.000377783; -0.00911546; -0.00872565;-0.000604798; -0.121132; -0.107037;-1; -1; -1; -1; -1; 100; 0; 0; 0; 0; 0;0; 0; 0;0; 0; 0;0; 0; 0;1; -0.198696; -2.04936; -1.5; 0; 0; 0; -3.77164; -42.5586; -3.77164; 670; 228; 1024; 1024; 1024; 204; 1024; 1024; 1024; 0; 3; 0; 1300; 15; 9; 0.0166839; 0; 0; 0; -0.397393; -2.66416; -2.55; 
68;74;2019/06/21 14:33:56;455; 357.6; 8.00328; 454.997; 357.599; 0; 9; 1; -0.198796; -2.05065; -1.82554;-0.198726; -2.04974; -1.82472;0.000368502; -0.00953442; -0.00910189;0.00260224; -0.128406; -0.116837;-1; -1; -1; -1; -1; 100; 0; 0; 0; 0; 0;0; 0; 0;0; 0; 0;0; 0; 0;1; -0.198726; -2.04974; -1.5; 0; 0; 0; -3.7723; -42.5733; -3.7723; 670; 228; 1024; 1024; 1024; 204; 1024; 1024; 1024; 0; 3; 0; 1300; 15; 9; 0.0166841; 0; 0; 0; -0.397453; -2.66467; -2.55; 
69;75;2019/06/21 14:33:56;455; 357.6; 7.99733; 454.996; 357.599; 0; 10; 1; -0.198944; -2.05218; -1.8269;-0.198792; -2.05047; -1.82538;4.18273e-06; -0.0118275; -0.0110711;0.00377168; -0.130295; -0.120333;-1; -1; -1; -1; -1; 100; 0; 0; 0; 0; 0;0; 0; 0;0; 0; 0;0; 0; 0;1; -0.198792; -2.05047; -1.5; 0; 0; 0; -3.777; -42.6249; -3.777; 670; 228; 1024; 1024; 1024; 204; 1024; 1024; 1024; 0; 3; 0; 1300; 15; 9; 0.016683; 0; 0; 0; -0.397583; -2.66562; -2.55; 
70;76;2019/06/21 14:33:56;455; 357.6; 8.01046; 454.997; 357.599; 0; 11; 1; -0.198618; -2.04881; -1.8239;-0.19874; -2.04998; -1.82493;-0.000532194; -0.0153212; -0.0140861;0.00227867; -0.140633; -0.130213;-1; -1; -1; -1; -1; 100; 0; 0; 0; 0; 0;0; 0; 0;0; 0; 0;0; 0; 0;1; -0.19874; -2.04998; -1.5; 0; 0; 0; -3.78111; -42.6702; -3.78111; 670; 228; 1024; 1024; 1024; 204; 1024; 1024; 1024; 0; 3; 0; 1300; 15; 9; 0.0166841; 0; 0; 0; -0.397479; -2.66497; -2.55; 
71;77;2019/06/21 14:33:56;455; 357.6; 8.01126; 454.997; 357.599; 0; 12; 1; -0.198598; -2.04861; -1.82372;-0.198697; -2.04956; -1.82457;-0.000367488; -0.0115859; -0.0106672;0.00285321; -0.118511; -0.110461;-1; -1; -1; -1; -1; 100; 0; 0; 0; 0; 0;0; 0; 0;0; 0; 0;0; 0; 0;1; -0.198697; -2.04956; -1.5; 0; 0; 0; -3.77874; -42.6022; -3.77874; 670; 228; 1024; 1024; 1024; 204; 1024; 1024; 1024; 0; 3; 0; 1300; 15; 9; 0.0166839; 0; 0; 0; -0.397394; -2.66443; -2.55; 
72;78;2019/06/21 14:33:56;455; 357.6; 8.02366; 454.998; 357.599; 0; 13; 1; -0.198291; -2.04544; -1.8209;-0.198575; -2.04833; -1.82347;0.000364223; -0.00224809; -0.0022723;0.00269914; -0.05084; -0.0476119;-1; -1; -1; -1; -1; 100; 0; 0; 0; 0; 0;0; 0; 0;0; 0; 0;0; 0; 0;1; -0.198575; -2.04833; -1.5; 0; 0; 0; -3.76947; -42.428; -3.76947; 670; 228; 1024; 1024; 1024; 204; 1024; 1024; 1024; 0; 3; 0; 1300; 15; 9; 0.0166841; 0; 0; 0; -0.397151; -2.66283; -2.55; 
73;79;2019/06/21 14:33:56;455; 357.6; 7.99166; 454.998; 357.599; 0; 14; 1; -0.199085; -2.05363; -1.8282;-0.198728; -2.04992; -1.82489;9.00379e-05; -0.0036039; -0.00341216;0.000469677; -0.00848021; -0.00733485;-1; -1; -1; -1; -1; 100; 0; 0; 0; 0; 0;0; 0; 0;0; 0; 0;0; 0; 0;1; -0.198728; -2.04992; -1.5; 0; 0; 0; -3.77498; -42.4825; -3.77498; 670; 228; 1024; 1024; 1024; 204; 1024; 1024; 1024; 0; 3; 0; 1300; 15; 9; 0.016683; 0; 0; 0; -0.397457; -2.6649; -2.55; 
74;80;2019/06/21 14:33:56;455.171; 357.659; 8.0001; 454.999; 357.6; 0; 15; 1; -0.19994; -2.05177; -1.82607;-0.199092; -2.05048; -1.82524;-0.00140701; -0.00508428; -0.00411228;-0.006813; 0.0126943; 0.0155372;-1; -1; -1; -1; -1; 100; 0; 0; 0; 0; 0;0; 0; 0;0; 0; 0;0; 0; 0;1; -0.199092; -2.05048; -1.5; 0; 0; 0; -3.79611; -42.5176; -3.79611; 670; 228; 1024; 1024; 1024; 204; 1024; 1024; 1024; 0; 3; 0; 1300; 15; 9; 0.0166839; 0; 0; 0; -0.398184; -2.66562; -2.55; 
75;81;2019/06/21 14:33:56;455; 357.6; 8.00051; 455.173; 357.659; 0; 16; 1; -0.198865; -2.05136; -1.82617;-0.199024; -2.05074; -1.82552;-0.00177189; -0.00411568; -0.00304041;-0.0111848; 0.038432; 0.0414121;-1; -1; -1; -1; -1; 100; 0; 0; 0; 0; 0;0; 0; 0;0; 0; 0;0; 0; 0;1; -0.199024; -2.05074; -1.5; 0; 0; 0; -3.79829; -42.5076; -3.79829; 670; 228; 1024; 1024; 1024; 204; 1024; 1024; 1024; 0; 3; 0; 1300; 15; 9; 0.0166841; 0; 0; 0; -0.398048; -2.66596; -2.55; 
76;82;2019/06/21 14:33:56;455; 357.6; 8.00668; 455.004; 357.601; 0; 17; 1; -0.198712; -2.04978; -1.82477;-0.19893; -2.05045; -1.82529;-0.00182506; -0.00437481; -0.00325807;-0.0118771; 0.0668; 0.0681155;-1; -1; -1; -1; -1; 100; 0; 0; 0; 0; 0;0; 0; 0;0; 0; 0;0; 0; 0;1; -0.19893; -2.05045; -1.5; 0; 0; 0; -3.79701; -42.5058; -3.79701; 670; 228; 1024; 1024; 1024; 204; 1024; 1024; 1024; 0; 3; 0; 1300; 15; 9; 0.016683; 0; 0; 0; -0.397861; -2.66559; -2.55; 
77;83;2019/06/21 14:33:56;455; 357.6; 7.99896; 455.004; 357.601; 0; 18; 1; -0.198904; -2.05176; -1.82652;-0.198922; -2.05084; -1.82566;-0.00199456; -0.00773518; -0.00632012;-0.0136279; 0.0554671; 0.0582398;-1; -1; -1; -1; -1; 100; 0; 0; 0; 0; 0;0; 0; 0;0; 0; 0;0; 0; 0;1; -0.198922; -2.05084; -1.5; 0; 0; 0; -3.79847; -42.5674; -3.79847; 670; 228; 1024; 1024; 1024; 204; 1024; 1024; 1024; 0; 3; 0; 1300; 15; 9; 0.0166841; 0; 0; 0; -0.397845; -2.6661; -2.55; 
78;84;2019/06/21 14:33:56;455; 357.6; 8.01724; 455.003; 357.601; 0; 19; 1; -0.19845; -2.04708; -1.82236;-0.198781; -2.04971; -1.82467;-0.00201678; -0.010182; -0.00859608;-0.017691; 0.00157684; 0.00967455;-1; -1; -1; -1; -1; 100; 0; 0; 0; 0; 0;0; 0; 0;0; 0; 0;0; 0; 0;1; -0.198781; -2.04971; -1.5; 0; 0; 0; -3.79599; -42.583; -3.79599; 670; 228; 1024; 1024; 1024; 204; 1024; 1024; 1024; 0; 3; 0; 1300; 15; 9; 0.0166839; 0; 0; 0; -0.397561; -2.66463; -2.55; 
79;85;2019/06/21 14:33:56;455; 357.6; 8.00598; 455.003; 357.601; 0; 20; 1; -0.198729; -2.04996; -1.82492;-0.198765; -2.04979; -1.82475;-0.00135696; -0.00558143; -0.00459794;-0.0163967; -0.00695586; 0.00106651;-1; -1; -1; -1; -1; 100; 0; 0; 0; 0; 0;0; 0; 0;0; 0; 0;0; 0; 0;1; -0.198765; -2.04979; -1.5; 0; 0; 0; -3.78943; -42.5113; -3.78943; 670; 228; 1024; 1024; 1024; 204; 1024; 1024; 1024; 0; 3; 0; 1300; 15; 9; 0.0166841; 0; 0; 0; -0.39753; -2.66472; -2.55; 
80;86;2019/06/21 14:33:56;455; 357.6; 8.0381; 455.002; 357.601; 0; 21; 1; -0.197935; -2.04177; -1.81763;-0.198516; -2.04738; -1.82261;0.0014863; 0.0090115; 0.00774287;0.00172344; 0.0521521; 0.0480122;-1; -1; -1; -1; -1; 100; 0; 0; 0; 0; 0;0; 0; 0;0; 0; 0;0; 0; 0;1; -0.198516; -2.04738; -1.5; 0; 0; 0; -3.75769; -42.2292; -3.75769; 670; 228; 1024; 1024; 1024; 204; 1024; 1024; 1024; 0; 3; 0; 1300; 15; 9; 0.016683; 0; 0; 0; -0.397032; -2.6616; -2.55; 
81;87;2019/06/21 14:33:56;455; 357.6; 7.9896; 454.998; 357.599; 0; 22; 1; -0.199137; -2.05416; -1.82867;-0.198702; -2.04942; -1.82443;0.00217644; 0.0106992; 0.00900624;0.0168113; 0.0904903; 0.0769449;-1; -1; -1; -1; -1; 100; 0; 0; 0; 0; 0;0; 0; 0;0; 0; 0;0; 0; 0;1; -0.198702; -2.04942; -1.5; 0; 0; 0; -3.75467; -42.2444; -3.75467; 670; 228; 1024; 1024; 1024; 204; 1024; 1024; 1024; 0; 3; 0; 1300; 15; 9; 0.0166839; 0; 0; 0; -0.397405; -2.66424; -2.55; 
82;88;2019/06/21 14:33:56;455; 357.6; 8.0114; 454.997; 357.599; 0; 23; 1; -0.198595; -2.04857; -1.82369;-0.19867; -2.04916; -1.82421;0.00234555; 0.0115717; 0.00974517;0.026752; 0.118014; 0.0981263;-1; -1; -1; -1; -1; 100; 0; 0; 0; 0; 0;0; 0; 0;0; 0; 0;0; 0; 0;1; -0.19867; -2.04916; -1.5; 0; 0; 0; -3.75245; -42.2253; -3.75245; 670; 228; 1024; 1024; 1024; 204; 1024; 1024; 1024; 0; 3; 0; 1300; 15; 9; 0.0166841; 0; 0; 0; -0.39734; -2.66391; -2.55; 
83;89;2019/06/21 14:33:56;455; 357.6; 7.99459; 454.997; 357.599; 0; 24; 1; -0.199012; -2.05288; -1.82752;-0.198773; -2.05028; -1.8252;0.00200461; 0.00920279; 0.00768723;0.0320315; 0.138491; 0.114848;-1; -1; -1; -1; -1; 100; 0; 0; 0; 0; 0;0; 0; 0;0; 0; 0;0; 0; 0;1; -0.198773; -2.05028; -1.5; 0; 0; 0; -3.75764; -42.286; -3.75764; 670; 228; 1024; 1024; 1024; 204; 1024; 1024; 1024; 0; 3; 0; 1300; 15; 9; 0.0166839; 0; 0; 0; -0.397546; -2.66536; -2.55; 
84;90;2019/06/21 14:33:56;455; 357.6; 8.00423; 454.997; 357.599; 0; 25; 1; -0.198773; -2.05041; -1.82532;-0.198773; -2.05032; -1.82524;0.00123432; 0.0031161; 0.00235015;0.03221; 0.136233; 0.112649;-1; -1; -1; -1; -1; 100; 0; 0; 0; 0; 0;0; 0; 0;0; 0; 0;0; 0; 0;1; -0.198773; -2.05032; -1.5; 0; 0; 0; -3.76496; -42.3837; -3.76496; 670; 228; 1024; 1024; 1024; 204; 1024; 1024; 1024; 0; 3; 0; 1300; 15; 9; 0.0166831; 0; 0; 0; -0.397545; -2.66541; -2.55; 
85;91;2019/06/21 14:33:56;455; 357.6; 7.98702; 454.997; 357.599; 0; 26; 1; -0.199201; -2.05482; -1.82926;-0.198901; -2.05167; -1.82644;0.000197137; -0.00564717; -0.00536649;0.0255361; 0.081477; 0.0645182;-1; -1; -1; -1; -1; 100; 0; 0; 0; 0; 0;0; 0; 0;0; 0; 0;0; 0; 0;1; -0.198901; -2.05167; -1.5; 0; 0; 0; -3.77725; -42.5512; -3.77725; 670; 228; 1024; 1024; 1024; 204; 1024; 1024; 1024; 0; 3; 0; 1300; 15; 9; 0.0166839; 0; 0; 0; -0.397802; -2.66717; -2.55; 
86;92;2019/06/21 14:33:56;455.027; 358; 8.02092; 454.998; 357.599; 0; 27; 1; -0.198527; -2.04823; -1.82017;-0.198789; -2.05064; -1.82456;-0.000971837; -0.0163945; -0.0110067;0.00549921; -0.0526331; -0.0362103;-1; -1; -1; -1; -1; 100; 0; 0; 0; 0; 0;0; 0; 0;0; 0; 0;0; 0; 0;1; -0.198789; -2.05064; -1.5; 0; 0; 0; -3.78622; -42.701; -3.78622; 670; 228; 1024; 1024; 1024; 204; 1024; 1024; 1024; 0; 3; 0; 1300; 15; 9; 0.0166841; 0; 0; 0; -0.397578; -2.66583; -2.55; 
87;93;2019/06/21 14:33:56;455; 355; 7.87259; 455.026; 358.007; 0; 28; 1; -0.202096; -2.07086; -1.86481;-0.199781; -2.0567; -1.83664;-0.0048942; -0.0389617; -0.0553814;-0.0249542; -0.230021; -0.279014;-1; -1; -1; -1; -1; 100; 0; 0; 0; 0; 0;0; 0; 0;0; 0; 0;0; 0; 0;1; -0.199781; -2.0567; -1.5; 0; 0; 0; -3.84234; -43.1858; -3.84234; 670; 228; 1024; 1024; 1024; 204; 1024; 1024; 1024; 0; 3; 0; 1300; 15; 9; 0.016683; 0; 0; 0; -0.399562; -2.67372; -2.55; 
88;94;2019/06/21 14:33:56;455; 355; 7.87259; 455; 354.959; 1; 0; 1; -0.202096; -2.07086; -1.86481;-0.199781; -2.0567; -1.83664;-0.0048942; -0.0389617; -0.0553814;-0.0249542; -0.230021; -0.279014;-1; -1; -1; -1; -1; 100; 0; 0; 0; 0; 0;0; 0; 0;0; 0; 0;0; 0; 0;1; -0.199781; -2.0567; -1.5; 0; 0; 0; -3.84234; -43.1858; -3.84234; 670; 228; 1024; 1024; 1024; 204; 1024; 1024; 1024; 0; 3; 0; 1300; 15; 9; 0.016683; 0; 0; 0; -0.399562; -2.67372; -2.55; 
89;95;2019/06/21 14:33:56;455; 355; 7.87259; 454.999; 354.918; 2; 0; 1; -0.202096; -2.07086; -1.86481;-0.199781; -2.0567; -1.83664;-0.0048942; -0.0389617; -0.0553814;-0.0249542; -0.230021; -0.279014;-1; -1; -1; -1; -1; 100; 0; 0; 0; 0; 0;0; 0; 0;0; 0; 0;0; 0; 0;1; -0.199781; -2.0567; -1.5; 0; 0; 0; -3.84234; -43.1858; -3.84234; 670; 228; 1024; 1024; 1024; 204; 1024; 1024; 1024; 0; 3; 0; 1300; 15; 9; 0.016683; 0; 0; 0; -0.399562; -2.67372; -2.55; 
90;96;2019/06/21 14:33:56;455; 355; 7.87259; 454.999; 354.877; 3; 0; 1; -0.202096; -2.07086; -1.86481;-0.199781; -2.0567; -1.83664;-0.0048942; -0.0389617; -0.0553814;-0.0249542; -0.230021; -0.279014;-1; -1; -1; -1; -1; 100; 0; 0; 0; 0; 0;0; 0; 0;0; 0; 0;0; 0; 0;1; -0.199781; -2.0567; -1.5; 0; 0; 0; -3.84234; -43.1858; -3.84234; 670; 228; 1024; 1024; 1024; 204; 1024; 1024; 1024; 0; 3; 0; 1300; 15; 9; 0.016683; 0; 0; 0; -0.399562; -2.67372; -2.55; 
91;97;2019/06/21 14:33:56;455; 355; 7.87259; 454.998; 354.836; 4; 0; 1; -0.202096; -2.07086; -1.86481;-0.199781; -2.0567; -1.83664;-0.0048942; -0.0389617; -0.0553814;-0.0249542; -0.230021; -0.279014;-1; -1; -1; -1; -1; 100; 0; 0; 0; 0; 0;0; 0; 0;0; 0; 0;0; 0; 0;1; -0.199781; -2.0567; -1.5; 0; 0; 0; -3.84234; -43.1858; -3.84234; 670; 228; 1024; 1024; 1024; 204; 1024; 1024; 1024; 0; 3; 0; 1300; 15; 9; 0.016683; 0; 0; 0; -0.399562; -2.67372; -2.55; 
92;98;2019/06/21 14:33:56;455; 355; 7.87259; 454.998; 354.795; 5; 0; 1; -0.202096; -2.07086; -1.86481;-0.199781; -2.0567; -1.83664;-0.0048942; -0.0389617; -0.0553814;-0.0249542; -0.230021; -0.279014;-1; -1; -1; -1; -1; 100; 0; 0; 0; 0; 0;0; 0; 0;0; 0; 0;0; 0; 0;1; -0.199781; -2.0567; -1.5; 0; 0; 0; -3.84234; -43.1858; -3.84234; 670; 228; 1024; 1024; 1024; 204; 1024; 1024; 1024; 0; 3; 0; 1300; 15; 9; 0.016683; 0; 0; 0; -0.399562; -2.67372; -2.55; 
93;99;2019/06/21 14:33:56;455; 355; 7.87259; 454.997; 354.754; 6; 0; 1; -0.202096; -2.07086; -1.86481;-0.199781; -2.0567; -1.83664;-0.0048942; -0.0389617; -0.0553814;-0.0249542; -0.230021; -0.279014;-1; -1; -1; -1; -1; 100; 0; 0; 0; 0; 0;0; 0; 0;0; 0; 0;0; 0; 0;1; -0.199781; -2.0567; -1.5; 0; 0; 0; -3.84234; -43.1858; -3.84234; 670; 228; 1024; 1024; 1024; 204; 1024; 1024; 1024; 0; 3; 0; 1300; 15; 9; 0.016683; 0; 0; 0; -0.399562; -2.67372; -2.55; 
94;100;2019/06/21 14:33:56;455; 355; 7.87259; 454.997; 354.713; 7; 0; 1; -0.202096; -2.07086; -1.86481;-0.199781; -2.0567; -1.83664;-0.0048942; -0.0389617; -0.0553814;-0.0249542; -0.230021; -0.279014;-1; -1; -1; -1; -1; 100; 0; 0; 0; 0; 0;0; 0; 0;0; 0; 0;0; 0; 0;1; -0.199781; -2.0567; -1.5; 0; 0; 0; -3.84234; -43.1858; -3.84234; 670; 228; 1024; 1024; 1024; 204; 1024; 1024; 1024; 0; 3; 0; 1300; 15; 9; 0.016683; 0; 0; 0; -0.399562; -2.67372; -2.55; 
95;101;2019/06/21 14:33:56;455; 355; 7.87259; 454.996; 354.672; 8; 0; 1; -0.202096; -2.07086; -1.86481;-0.199781; -2.0567; -1.83664;-0.0048942; -0.0389617; -0.0553814;-0.0249542; -0.230021; -0.279014;-1; -1; -1; -1; -1; 100; 0; 0; 0; 0; 0;0; 0; 0;0; 0; 0;0; 0; 0;1; -0.199781; -2.0567; -1.5; 0; 0; 0; -3.84234; -43.1858; -3.84234; 670; 228; 1024; 1024; 1024; 204; 1024; 1024; 1024; 0; 3; 0; 1300; 15; 9; 0.016683; 0; 0; 0; -0.399562; -2.67372; -2.55; 
96;102;2019/06/21 14:33:56;455; 355; 7.87259; 454.996; 354.631; 9; 0; 1; -0.202096; -2.07086; -1.86481;-0.199781; -2.0567; -1.83664;-0.0048942; -0.0389617; -0.0553814;-0.0249542; -0.230021; -0.279014;-1; -1; -1; -1; -1; 100; 0; 0; 0; 0; 0;0; 0; 0;0; 0; 0;0; 0; 0;1; -0.199781; -2.0567; -1.5; 0; 0; 0; -3.84234; -43.1858; -3.84234; 670; 228; 1024; 1024; 1024; 204; 1024; 1024; 1024; 0; 3; 0; 1300; 15; 9; 0.016683; 0; 0; 0; -0.399562; -2.67372; -2.55; 
97;103;2019/06/21 14:33:56;455; 355; 7.87259; 454.995; 354.591; 10; 0; 0; 0; 0; 0;0; 0; 0;0; 0; 0;0; 0; 0;-1; -1; -1; -1; -1; 100; 0; 0; 0; 0; 0;0; 0; 0;0; 0; 0;0; 0; 0;0; 0; 0; 0; 0; 0; 0; 0; 0; 0; 670; 228; 1024; 1024; 1024; 204; 1024; 1024; 1024; 0; 3; 0; 1300; 15; 9; 0; 0; 0; 0; 0; 0; 0; 
98;104;2019/06/21 14:33:56;455; 355; 7.87259; 454.995; 354.591; 11; 0; 0; 0; 0; 0;0; 0; 0;0; 0; 0;0; 0; 0;-1; -1; -1; -1; -1; 100; 0; 0; 0; 0; 0;0; 0; 0;0; 0; 0;0; 0; 0;0; 0; 0; 0; 0; 0; 0; 0; 0; 0; 670; 228; 1024; 1024; 1024; 204; 1024; 1024; 1024; 0; 3; 0; 1300; 15; 9; 0; 0; 0; 0; 0; 0; 0; 
99;105;2019/06/21 14:33:56;455; 355; 7.87259; 454.995; 354.591; 12; 0; 0; 0; 0; 0;0; 0; 0;0; 0; 0;0; 0; 0;-1; -1; -1; -1; -1; 100; 0; 0; 0; 0; 0;0; 0; 0;0; 0; 0;0; 0; 0;0; 0; 0; 0; 0; 0; 0; 0; 0; 0; 670; 228; 1024; 1024; 1024; 204; 1024; 1024; 1024; 0; 3; 0; 1300; 15; 9; 0; 0; 0; 0; 0; 0; 0; 
100;106;2019/06/21 14:33:56;455; 355; 7.87259; 454.995; 354.591; 13; 0; 0; 0; 0; 0;0; 0; 0;0; 0; 0;0; 0; 0;-1; -1; -1; -1; -1; 100; 0; 0; 0; 0; 0;0; 0; 0;0; 0; 0;0; 0; 0;0; 0; 0; 0; 0; 0; 0; 0; 0; 0; 670; 228; 1024; 1024; 1024; 204; 1024; 1024; 1024; 0; 3; 0; 1300; 15; 9; 0; 0; 0; 0; 0; 0; 0; 
101;107;2019/06/21 14:33:56;455; 355; 7.87259; 454.995; 354.591; 14; 0; 0; 0; 0; 0;0; 0; 0;0; 0; 0;0; 0; 0;-1; -1; -1; -1; -1; 100; 0; 0; 0; 0; 0;0; 0; 0;0; 0; 0;0; 0; 0;0; 0; 0; 0; 0; 0; 0; 0; 0; 0; 670; 228; 1024; 1024; 1024; 204; 1024; 1024; 1024; 0; 3; 0; 1300; 15; 9; 0; 0; 0; 0; 0; 0; 0; 
102;108;2019/06/21 14:33:56;455; 355; 7.87259; 454.995; 354.591; 15; 0; 0; 0; 0; 0;0; 0; 0;0; 0; 0;0; 0; 0;-1; -1; -1; -1; -1; 100; 0; 0; 0; 0; 0;0; 0; 0;0; 0; 0;0; 0; 0;0; 0; 0; 0; 0; 0; 0; 0; 0; 0; 670; 228; 1024; 1024; 1024; 204; 1024; 1024; 1024; 0; 3; 0; 1300; 15; 9; 0; 0; 0; 0; 0; 0; 0; 
103;109;2019/06/21 14:33:56;455; 355; 7.87259; 454.995; 354.591; 16; 0; 0; 0; 0; 0;0; 0; 0;0; 0; 0;0; 0; 0;-1; -1; -1; -1; -1; 100; 0; 0; 0; 0; 0;0; 0; 0;0; 0; 0;0; 0; 0;0; 0; 0; 0; 0; 0; 0; 0; 0; 0; 670; 228; 1024; 1024; 1024; 204; 1024; 1024; 1024; 0; 3; 0; 1300; 15; 9; 0; 0; 0; 0; 0; 0; 0; 
104;110;2019/06/21 14:33:56;455; 355; 7.87259; 454.995; 354.591; 17; 0; 0; 0; 0; 0;0; 0; 0;0; 0; 0;0; 0; 0;-1; -1; -1; -1; -1; 100; 0; 0; 0; 0; 0;0; 0; 0;0; 0; 0;0; 0; 0;0; 0; 0; 0; 0; 0; 0; 0; 0; 0; 670; 228; 1024; 1024; 1024; 204; 1024; 1024; 1024; 0; 3; 0; 1300; 15; 9; 0; 0; 0; 0; 0; 0; 0; 
105;111;2019/06/21 14:33:56;455; 355; 7.87259; 454.995; 354.591; 18; 0; 0; 0; 0; 0;0; 0; 0;0; 0; 0;0; 0; 0;-1; -1; -1; -1; -1; 100; 0; 0; 0; 0; 0;0; 0; 0;0; 0; 0;0; 0; 0;0; 0; 0; 0; 0; 0; 0; 0; 0; 0; 670; 228; 1024; 1024; 1024; 204; 1024; 1024; 1024; 0; 3; 0; 1300; 15; 9; 0; 0; 0; 0; 0; 0; 0; 
106;112;2019/06/21 14:33:56;455; 355; 7.87259; 454.995; 354.591; 19; 0; 0; 0; 0; 0;0; 0; 0;0; 0; 0;0; 0; 0;-1; -1; -1; -1; -1; 100; 0; 0; 0; 0; 0;0; 0; 0;0; 0; 0;0; 0; 0;0; 0; 0; 0; 0; 0; 0; 0; 0; 0; 670; 228; 1024; 1024; 1024; 204; 1024; 1024; 1024; 0; 3; 0; 1300; 15; 9; 0; 0; 0; 0; 0; 0; 0; 
107;113;2019/06/21 14:33:56;455; 355; 7.87259; 454.995; 354.591; 20; 0; 0; 0; 0; 0;0; 0; 0;0; 0; 0;0; 0; 0;-1; -1; -1; -1; -1; 100; 0; 0; 0; 0; 0;0; 0; 0;0; 0; 0;0; 0; 0;0; 0; 0; 0; 0; 0; 0; 0; 0; 0; 670; 228; 1024; 1024; 1024; 204; 1024; 1024; 1024; 0; 3; 0; 1300; 15; 9; 0; 0; 0; 0; 0; 0; 0; 
108;114;2019/06/21 14:33:56;455; 355; 7.87259; 454.995; 354.591; 21; 0; 0; 0; 0; 0;0; 0; 0;0; 0; 0;0; 0; 0;-1; -1; -1; -1; -1; 100; 0; 0; 0; 0; 0;0; 0; 0;0; 0; 0;0; 0; 0;0; 0; 0; 0; 0; 0; 0; 0; 0; 0; 670; 228; 1024; 1024; 1024; 204; 1024; 1024; 1024; 0; 3; 0; 1300; 15; 9; 0; 0; 0; 0; 0; 0; 0; 
109;115;2019/06/21 14:33:56;455; 355; 7.87259; 454.995; 354.591; 22; 0; 0; 0; 0; 0;0; 0; 0;0; 0; 0;0; 0; 0;-1; -1; -1; -1; -1; 100; 0; 0; 0; 0; 0;0; 0; 0;0; 0; 0;0; 0; 0;0; 0; 0; 0; 0; 0; 0; 0; 0; 0; 670; 228; 1024; 1024; 1024; 204; 1024; 1024; 1024; 0; 3; 0; 1300; 15; 9; 0; 0; 0; 0; 0; 0; 0; 
110;116;2019/06/21 14:33:56;455; 355; 7.87259; 454.995; 354.591; 23; 0; 0; 0; 0; 0;0; 0; 0;0; 0; 0;0; 0; 0;-1; -1; -1; -1; -1; 100; 0; 0; 0; 0; 0;0; 0; 0;0; 0; 0;0; 0; 0;0; 0; 0; 0; 0; 0; 0; 0; 0; 0; 670; 228; 1024; 1024; 1024; 204; 1024; 1024; 1024; 0; 3; 0; 1300; 15; 9; 0; 0; 0; 0; 0; 0; 0; 
111;117;2019/06/21 14:33:56;455; 355; 7.87259; 454.995; 354.591; 24; 0; 0; 0; 0; 0;0; 0; 0;0; 0; 0;0; 0; 0;-1; -1; -1; -1; -1; 100; 0; 0; 0; 0; 0;0; 0; 0;0; 0; 0;0; 0; 0;0; 0; 0; 0; 0; 0; 0; 0; 0; 0; 670; 228; 1024; 1024; 1024; 204; 1024; 1024; 1024; 0; 3; 0; 1300; 15; 9; 0; 0; 0; 0; 0; 0; 0; 
112;118;2019/06/21 14:33:56;455; 355; 7.87259; 454.995; 354.591; 25; 0; 0; 0; 0; 0;0; 0; 0;0; 0; 0;0; 0; 0;-1; -1; -1; -1; -1; 100; 0; 0; 0; 0; 0;0; 0; 0;0; 0; 0;0; 0; 0;0; 0; 0; 0; 0; 0; 0; 0; 0; 0; 670; 228; 1024; 1024; 1024; 204; 1024; 1024; 1024; 0; 3; 0; 1300; 15; 9; 0; 0; 0; 0; 0; 0; 0; 
113;119;2019/06/21 14:33:56;455; 355; 7.87259; 454.995; 354.591; 26; 0; 0; 0; 0; 0;0; 0; 0;0; 0; 0;0; 0; 0;-1; -1; -1; -1; -1; 100; 0; 0; 0; 0; 0;0; 0; 0;0; 0; 0;0; 0; 0;0; 0; 0; 0; 0; 0; 0; 0; 0; 0; 670; 228; 1024; 1024; 1024; 204; 1024; 1024; 1024; 0; 3; 0; 1300; 15; 9; 0; 0; 0; 0; 0; 0; 0; 
114;120;2019/06/21 14:33:56;455.135; 358.108; 8.00642; 454.995; 354.591; 0; 1; 1; -0.19956; -2.0525; -1.8231;-0.19956; -2.0525; -1.8231;0; 0; 0;0; 0; 0;-1; -1; -1; -1; -1; 100; 0; 0; 0; 0; 0;0; 0; 0;0; 0; 0;0; 0; 0;1; -0.19956; -2.0525; -1.5; 0; 0; 0; -3.79165; -42.4786; -3.79165; 670; 228; 1024; 1024; 1024; 204; 1024; 1024; 1024; 0; 3; 0; 1300; 15; 9; 0.450461; 0; 0; 0; -0.399121; -2.66825; -2.55; 
115;121;2019/06/21 14:33:56;455; 357.6; 8.01019; 455.135; 358.108; 0; 2; 1; -0.198625; -2.04888; -1.82396;-0.19928; -2.05142; -1.82336;0; 0; 0;0; 0; 0;-1; -1; -1; -1; -1; 100; 0; 0; 0; 0; 0;0; 0; 0;0; 0; 0;0; 0; 0;1; -0.19928; -2.05142; -1.5; 0; 0; 0; -3.78631; -42.4561; -3.78631; 670; 228; 1024; 1024; 1024; 204; 1024; 1024; 1024; 0; 3; 0; 1300; 15; 9; 0.0166841; 0; 0; 0; -0.398559; -2.66684; -2.55; 
116;122;2019/06/21 14:33:56;454.872; 357.692; 8.00719; 455; 357.6; 0; 3; 1; -0.1979; -2.05013; -1.82433;-0.198866; -2.05103; -1.82365;0; 0; 0;0; 0; 0;-1; -1; -1; -1; -1; 100; 0; 0; 0; 0; 0;0; 0; 0;0; 0; 0;0; 0; 0;1; -0.198866; -2.05103; -1.5; 0; 0; 0; -3.77845; -42.4481; -3.77845; 670; 228; 1024; 1024; 1024; 204; 1024; 1024; 1024; 0; 3; 0; 1300; 15; 9; 0.0166829; 0; 0; 0; -0.397732; -2.66634; -2.55; 
117;123;2019/06/21 14:33:56;454.872; 357.692; 7.98917; 454.872; 357.692; 0; 4; 1; -0.198347; -2.05476; -1.82845;-0.19871; -2.05215; -1.82509;0; 0; 0;0; 0; 0;-1; -1; -1; -1; -1; 100; 0; 0; 0; 0; 0;0; 0; 0;0; 0; 0;0; 0; 0;1; -0.19871; -2.05215; -1.5; 0; 0; 0; -3.77549; -42.4713; -3.77549; 670; 228; 1024; 1024; 1024; 204; 1024; 1024; 1024; 0; 3; 0; 1300; 15; 9; 0.0166841; 0; 0; 0; -0.39742; -2.66779; -2.55; 
118;124;2019/06/21 14:33:56;455.128; 357.692; 7.98337; 454.872; 357.692; 0; 5; 1; -0.200093; -2.05625; -1.82978;-0.199125; -2.05338; -1.8265;0; 0; 0;0; 0; 0;-1; -1; -1; -1; -1; 100; 0; 0; 0; 0; 0;0; 0; 0;0; 0; 0;0; 0; 0;1; -0.199125; -2.05338; -1.5; 0; 0; 0; -3.78338; -42.4967; -3.78338; 670; 228; 1024; 1024; 1024; 204; 1024; 1024; 1024; 0; 3; 0; 1300; 15; 9; 0.0166841; 0; 0; 0; -0.39825; -2.66939; -2.55; 
119;125;2019/06/21 14:33:56;454.895; 357.895; 8.00619; 455.128; 357.692; 0; 6; 1; -0.198068; -2.05145; -1.82388;-0.198808; -2.0528; -1.82571;0; 0; 0;0; 0; 0;-1; -1; -1; -1; -1; 100; 0; 0; 0; 0; 0;0; 0; 0;0; 0; 0;0; 0; 0;1; -0.198808; -2.0528; -1.5; 0; 0; 0; -3.77735; -42.4847; -3.77735; 670; 228; 1024; 1024; 1024; 204; 1024; 1024; 1024; 0; 3; 0; 1300; 15; 9; 0.0166838; 0; 0; 0; -0.397616; -2.66864; -2.55; 
120;126;2019/06/21 14:33:56;455; 358.222; 7.97978; 454.895; 357.895; 0; 7; 1; -0.199382; -2.05995; -1.8288;-0.19898; -2.05495; -1.82664;0; 0; 0;0; 0; 0;-1; -1; -1; -1; -1; 100; 0; 0; 0; 0; 0;0; 0; 0;0; 0; 0;0; 0; 0;1; -0.19898; -2.05495; -1.5; 0; 0; 0; -3.78062; -42.5291; -3.78062; 670; 228; 1024; 1024; 1024; 204; 1024; 1024; 1024; 0; 3; 0; 1300; 15; 9; 0.0166831; 0; 0; 0; -0.39796; -2.67143; -2.55; 
121;127;2019/06/21 14:33:56;455.135; 358.108; 8.01216; 455; 358.222; 0; 8; 1; -0.199418; -2.05103; -1.8218;-0.199111; -2.05377; -1.82519;0.00415111; -0.0240596; -0.0284984;0.0165875; -0.0961402; -0.113878;-1; -1; -1; -1; -1; 100; 0; 0; 0; 0; 0;0; 0; 0;0; 0; 0;0; 0; 0;1; -0.199111; -2.05377; -1.5; 0; 0; 0; -3.74368; -42.8879; -3.74368; 670; 228; 1024; 1024; 1024; 204; 1024; 1024; 1024; 0; 3; 0; 1300; 15; 9; 0.0166841; 0; 0; 0; -0.398223; -2.6699; -2.55; 
122;128;2019/06/21 14:33:56;455; 358.222; 8.02429; 455.117; 358.093; 0; 9; 1; -0.198276; -2.04853; -1.81866;-0.198861; -2.0522; -1.82323;0.00251138; -0.0191039; -0.0153976;0.0199877; -0.134021; -0.129854;-1; -1; -1; -1; -1; 100; 0; 0; 0; 0; 0;0; 0; 0;0; 0; 0;0; 0; 0;1; -0.198861; -2.0522; -1.5; 0; 0; 0; -3.75449; -42.7764; -3.75449; 670; 228; 1024; 1024; 1024; 204; 1024; 1024; 1024; 0; 3; 0; 1300; 15; 9; 0.0166838; 0; 0; 0; -0.397721; -2.66786; -2.55; 
123;129;2019/06/21 14:33:56;455.027; 358; 8.00997; 454.989; 358.225; 0; 10; 1; -0.198799; -2.05103; -1.82266;-0.198842; -2.05185; -1.82306;0.000979336; -0.0102629; -0.00110729;0.015906; -0.121422; -0.0823367;-1; -1; -1; -1; -1; 100; 0; 0; 0; 0; 0;0; 0; 0;0; 0; 0;0; 0; 0;1; -0.198842; -2.05185; -1.5; 0; 0; 0; -3.7687; -42.6284; -3.7687; 670; 228; 1024; 1024; 1024; 204; 1024; 1024; 1024; 0; 3; 0; 1300; 15; 9; 0.0166841; 0; 0; 0; -0.397684; -2.6674; -2.55; 
124;130;2019/06/21 14:33:56;454.872; 357.692; 7.99054; 455.023; 358.017; 0; 11; 1; -0.198313; -2.0544; -1.82814;-0.198683; -2.05261; -1.82458;0.00235296; -0.0031072; 0.00699488;0.0189458; -0.0852695; -0.021451;-1; -1; -1; -1; -1; 100; 0; 0; 0; 0; 0;0; 0; 0;0; 0; 0;0; 0; 0;1; -0.198683; -2.05261; -1.5; 0; 0; 0; -3.75263; -42.5304; -3.75263; 670; 228; 1024; 1024; 1024; 204; 1024; 1024; 1024; 0; 3; 0; 1300; 15; 9; 0.0166831; 0; 0; 0; -0.397367; -2.6684; -2.55; 
125;131;2019/06/21 14:33:56;455.128; 357.692; 8.02011; 454.866; 357.712; 0; 12; 1; -0.199177; -2.04683; -1.8214;-0.198831; -2.05088; -1.82363;0.00131841; 0.00580683; 0.0125326;0.0166358; -0.0279581; 0.0372086;-1; -1; -1; -1; -1; 100; 0; 0; 0; 0; 0;0; 0; 0;0; 0; 0;0; 0; 0;1; -0.198831; -2.05088; -1.5; 0; 0; 0; -3.76527; -42.3525; -3.76527; 670; 228; 1024; 1024; 1024; 204; 1024; 1024; 1024; 0; 3; 0; 1300; 15; 9; 0.0166841; 0; 0; 0; -0.397663; -2.66614; -2.55; 
126;132;2019/06/21 14:33:56;455.128; 357.692; 7.98613; 455.127; 357.708; 0; 13; 1; -0.200024; -2.05554; -1.82915;-0.199189; -2.05228; -1.82528;-4.45251e-05; 0.0141486; 0.0129385;0.00980354; 0.0397612; 0.0740258;-1; -1; -1; -1; -1; 100; 0; 0; 0; 0; 0;0; 0; 0;0; 0; 0;0; 0; 0;1; -0.199189; -2.05228; -1.5; 0; 0; 0; -3.78502; -42.2487; -3.78502; 670; 228; 1024; 1024; 1024; 204; 1024; 1024; 1024; 0; 3; 0; 1300; 15; 9; 0.0166838; 0; 0; 0; -0.398378; -2.66796; -2.55; 
127;133;2019/06/21 14:33:56;455; 357.6; 7.99197; 455.132; 357.693; 0; 14; 1; -0.199078; -2.05355; -1.82812;-0.199156; -2.05266; -1.82613;-0.000204037; 0.0129344; 0.00397133;-0.0115207; 0.171682; 0.174162;-1; -1; -1; -1; -1; 100; 0; 0; 0; 0; 0;0; 0; 0;0; 0; 0;0; 0; 0;1; -0.199156; -2.05266; -1.5; 0; 0; 0; -3.7859; -42.2759; -3.7859; 670; 228; 1024; 1024; 1024; 204; 1024; 1024; 1024; 0; 3; 0; 1300; 15; 9; 0.0166831; 0; 0; 0; -0.398311; -2.66846; -2.55; 
128;134;2019/06/21 14:33:57;455.128; 357.692; 7.97822; 455.003; 357.584; 0; 15; 1; -0.200222; -2.05758; -1.83096;-0.199476; -2.05413; -1.82758;-0.00258021; 2.66423e-05; -0.0150207;-0.027258; 0.179453; 0.106003;-1; -1; -1; -1; -1; 100; 0; 0; 0; 0; 0;0; 0; 0;0; 0; 0;0; 0; 0;1; -0.199476; -2.05413; -1.5; 0; 0; 0; -3.81455; -42.5119; -3.81455; 670; 228; 1024; 1024; 1024; 204; 1024; 1024; 1024; 0; 3; 0; 1300; 15; 9; 0.0166841; 0; 0; 0; -0.398951; -2.67037; -2.55; 
129;135;2019/06/21 14:33:57;455; 358.222; 8.01202; 455.133; 357.661; 0; 16; 1; -0.198579; -2.05166; -1.82144;-0.199207; -2.05339; -1.82574;-0.00300552; -0.00615848; -0.0197308;-0.032278; 0.124073; -0.0108161;-1; -1; -1; -1; -1; 100; 0; 0; 0; 0; 0;0; 0; 0;0; 0; 0;0; 0; 0;1; -0.199207; -2.05339; -1.5; 0; 0; 0; -3.81348; -42.5951; -3.81348; 670; 228; 1024; 1024; 1024; 204; 1024; 1024; 1024; 0; 3; 0; 1300; 15; 9; 0.0166838; 0; 0; 0; -0.398414; -2.66941; -2.55; 
130;136;2019/06/21 14:33:57;455; 358.222; 8.00621; 455.004; 358.193; 0; 17; 1; -0.198723; -2.05315; -1.82276;-0.199062; -2.05332; -1.82485;-0.00331595; -0.00651792; -0.0128974;-0.0420192; 0.060815; -0.0859769;-1; -1; -1; -1; -1; 100; 0; 0; 0; 0; 0;0; 0; 0;0; 0; 0;0; 0; 0;1; -0.199062; -2.05332; -1.5; 0; 0; 0; -3.81368; -42.5993; -3.81368; 670; 228; 1024; 1024; 1024; 204; 1024; 1024; 1024; 0; 3; 0; 1300; 15; 9; 0.0166841; 0; 0; 0; -0.398124; -2.66932; -2.55; 
131;137;2019/06/21 14:33:57;455; 358.222; 8.03494; 455.006; 358.208; 0; 18; 1; -0.198013; -2.04581; -1.81625;-0.198747; -2.05107; -1.82227;-0.00165351; -0.00467101; -0.00230565;-0.0370871; -0.00537967; -0.110879;-1; -1; -1; -1; -1; 100; 0; 0; 0; 0; 0;0; 0; 0;0; 0; 0;0; 0; 0;1; -0.198747; -2.05107; -1.5; 0; 0; 0; -3.7919; -42.5233; -3.7919; 670; 228; 1024; 1024; 1024; 204; 1024; 1024; 1024; 0; 3; 0; 1300; 15; 9; 0.0166831; 0; 0; 0; -0.397494; -2.66639; -2.55; 
132;138;2019/06/21 14:33:57;455; 358.222; 8.00143; 455.004; 358.226; 0; 19; 1; -0.198842; -2.05438; -1.82385;-0.198776; -2.05206; -1.82274;0.000660117; -0.00194803; 0.00876716;-0.0194366; -0.0675484; -0.0831954;-1; -1; -1; -1; -1; 100; 0; 0; 0; 0; 0;0; 0; 0;0; 0; 0;0; 0; 0;1; -0.198776; -2.05206; -1.5; 0; 0; 0; -3.77047; -42.5005; -3.77047; 670; 228; 1024; 1024; 1024; 204; 1024; 1024; 1024; 0; 3; 0; 1300; 15; 9; 0.0166841; 0; 0; 0; -0.397551; -2.66768; -2.55; 
133;139;2019/06/21 14:33:57;455; 358.222; 7.98989; 455; 358.244; 0; 20; 1; -0.199129; -2.05735; -1.82648;-0.198882; -2.05365; -1.82386;0.00149054; -0.00512059; 0.014329;-0.0048906; -0.112675; -0.00852917;-1; -1; -1; -1; -1; 100; 0; 0; 0; 0; 0;0; 0; 0;0; 0; 0;0; 0; 0;1; -0.198882; -2.05365; -1.5; 0; 0; 0; -3.76459; -42.5838; -3.76459; 670; 228; 1024; 1024; 1024; 204; 1024; 1024; 1024; 0; 3; 0; 1300; 15; 9; 0.0166838; 0; 0; 0; -0.397764; -2.66974; -2.55; 
134;140;2019/06/21 14:33:57;455.027; 358; 8.00124; 454.998; 358.261; 0; 21; 1; -0.199016; -2.05327; -1.82465;-0.198922; -2.05353; -1.8241;0.00310719; -0.000673474; 0.0225101;0.0197919; -0.0704026; 0.144851;-1; -1; -1; -1; -1; 100; 0; 0; 0; 0; 0;0; 0; 0;0; 0; 0;0; 0; 0;1; -0.198922; -2.05353; -1.5; 0; 0; 0; -3.75; -42.5107; -3.75; 670; 228; 1024; 1024; 1024; 204; 1024; 1024; 1024; 0; 3; 0; 1300; 15; 9; 0.0166841; 0; 0; 0; -0.397844; -2.66959; -2.55; 
135;141;2019/06/21 14:33:57;454.872; 357.692; 8.00469; 455.022; 358.048; 0; 22; 1; -0.197962; -2.05077; -1.82491;-0.198634; -2.05271; -1.82434;0.00415324; 0.00234351; 0.0190898;0.0404809; -0.0082683; 0.242035;-1; -1; -1; -1; -1; 100; 0; 0; 0; 0; 0;0; 0; 0;0; 0; 0;0; 0; 0;1; -0.198634; -2.05271; -1.5; 0; 0; 0; -3.73459; -42.4455; -3.73459; 670; 228; 1024; 1024; 1024; 204; 1024; 1024; 1024; 0; 3; 0; 1300; 15; 9; 0.0166831; 0; 0; 0; -0.397268; -2.66852; -2.55; 
136;142;2019/06/21 14:33:57;454.872; 357.692; 7.96826; 454.864; 357.728; 0; 23; 1; -0.198867; -2.06015; -1.83325;-0.198704; -2.05494; -1.82701;0.00392195; -0.00505703; 0.00279048;0.0532107; 0.00087662; 0.207908;-1; -1; -1; -1; -1; 100; 0; 0; 0; 0; 0;0; 0; 0;0; 0; 0;0; 0; 0;1; -0.198704; -2.05494; -1.5; 0; 0; 0; -3.73812; -42.6095; -3.73812; 670; 228; 1024; 1024; 1024; 204; 1024; 1024; 1024; 0; 3; 0; 1300; 15; 9; 0.0166838; 0; 0; 0; -0.397408; -2.67142; -2.55; 
137;143;2019/06/21 14:33:57;454.872; 357.692; 7.99014; 454.861; 357.707; 0; 24; 1; -0.198323; -2.05451; -1.82823;-0.19859; -2.05481; -1.82738;0.00298314; -0.0179791; -0.0187553;0.0504539; -0.0526518; 0.0590141;-1; -1; -1; -1; -1; 100; 0; 0; 0; 0; 0;0; 0; 0;0; 0; 0;0; 0; 0;1; -0.19859; -2.05481; -1.5; 0; 0; 0; -3.74486; -42.8126; -3.74486; 670; 228; 1024; 1024; 1024; 204; 1024; 1024; 1024; 0; 3; 0; 1300; 15; 9; 0.0166841; 0; 0; 0; -0.397179; -2.67125; -2.55; 
138;144;2019/06/21 14:33:57;454.872; 357.692; 7.97275; 454.859; 357.687; 0; 25; 1; -0.198755; -2.05899; -1.83222;-0.198639; -2.05606; -1.82883;0.00233531; -0.0267719; -0.0355819;0.0369663; -0.130786; -0.141807;-1; -1; -1; -1; -1; 100; 0; 0; 0; 0; 0;0; 0; 0;0; 0; 0;0; 0; 0;1; -0.198639; -2.05606; -1.5; 0; 0; 0; -3.75196; -42.9785; -3.75196; 670; 228; 1024; 1024; 1024; 204; 1024; 1024; 1024; 0; 3; 0; 1300; 15; 9; 0.0166831; 0; 0; 0; -0.397278; -2.67288; -2.55; 
139;145;2019/06/21 14:33:57;455.027; 358; 8.0105; 454.857; 357.668; 0; 26; 1; -0.198786; -2.05089; -1.82254;-0.198683; -2.05451; -1.82694;0.00219502; -0.0195157; -0.0336504;0.0249948; -0.135993; -0.276806;-1; -1; -1; -1; -1; 100; 0; 0; 0; 0; 0;0; 0; 0;0; 0; 0;0; 0; 0;1; -0.198683; -2.05451; -1.5; 0; 0; 0; -3.75413; -42.8309; -3.75413; 670; 228; 1024; 1024; 1024; 204; 1024; 1024; 1024; 0; 3; 0; 1300; 15; 9; 0.0166841; 0; 0; 0; -0.397366; -2.67087; -2.55; 
140;146;2019/06/21 14:33:57;455; 358.222; 7.98398; 455.013; 357.966; 0; 27; 1; -0.199277; -2.05887; -1.82784;-0.198861; -2.05582; -1.82721;0.00155965; -0.020844; -0.0326225;0.00881306; -0.162196; -0.386389;-1; -1; -1; -1; -1; 100; 0; 0; 0; 0; 0;0; 0; 0;0; 0; 0;0; 0; 0;1; -0.198861; -2.05582; -1.5; 0; 0; 0; -3.76355; -42.8791; -3.76355; 670; 228; 1024; 1024; 1024; 204; 1024; 1024; 1024; 0; 3; 0; 1300; 15; 9; 0.0166838; 0; 0; 0; -0.397722; -2.67257; -2.55; 
141;147;2019/06/21 14:33:57;455; 355; 7.96639; 454.988; 358.193; 0; 28; 1; -0.199717; -2.04648; -1.84285;-0.199118; -2.05302; -1.8319;-0.000997938; -0.0137544; -0.0497892;-0.0152957; -0.161643; -0.507066;-1; -1; -1; -1; -1; 100; 0; 0; 0; 0; 0;0; 0; 0;0; 0; 0;0; 0; 0;1; -0.199118; -2.05302; -1.5; 0; 0; 0; -3.79272; -42.7082; -3.79272; 670; 228; 1024; 1024; 1024; 204; 1024; 1024; 1024; 0; 3; 0; 1300; 15; 9; 0.0166841; 0; 0; 0; -0.398236; -2.66892; -2.55; 
142;148;2019/06/21 14:33:57;455; 355; 7.96639; 454.993; 354.923; 1; 0; 1; -0.199717; -2.04648; -1.84285;-0.199118; -2.05302; -1.8319;-0.000997938; -0.0137544; -0.0497892;-0.0152957; -0.161643; -0.507066;-1; -1; -1; -1; -1; 100; 0; 0; 0; 0; 0;0; 0; 0;0; 0; 0;0; 0; 0;1; -0.199118; -2.05302; -1.5; 0; 0; 0; -3.79272; -42.7082; -3.79272; 670; 228; 1024; 1024; 1024; 204; 1024; 1024; 1024; 0; 3; 0; 1300; 15; 9; 0.0166841; 0; 0; 0; -0.398236; -2.66892; -2.55; 
143;149;2019/06/21 14:33:57;455; 355; 7.96639; 454.986; 354.847; 2; 0; 1; -0.199717; -2.04648; -1.84285;-0.199118; -2.05302; -1.8319;-0.000997938; -0.0137544; -0.0497892;-0.0152957; -0.161643; -0.507066;-1; -1; -1; -1; -1; 100; 0; 0; 0; 0; 0;0; 0; 0;0; 0; 0;0; 0; 0;1; -0.199118; -2.05302; -1.5; 0; 0; 0; -3.79272; -42.7082; -3.79272; 670; 228; 1024; 1024; 1024; 204; 1024; 1024; 1024; 0; 3; 0; 1300; 15; 9; 0.0166841; 0; 0; 0; -0.398236; -2.66892; -2.55; 
144;150;2019/06/21 14:33:57;455; 355; 7.96639; 454.978; 354.77; 3; 0; 1; -0.199717; -2.04648; -1.84285;-0.199118; -2.05302; -1.8319;-0.000997938; -0.0137544; -0.0497892;-0.0152957; -0.161643; -0.507066;-1; -1; -1; -1; -1; 100; 0; 0; 0; 0; 0;0; 0; 0;0; 0; 0;0; 0; 0;1; -0.199118; -2.05302; -1.5; 0; 0; 0; -3.79272; -42.7082; -3.79272; 670; 228; 1024; 1024; 1024; 204; 1024; 1024; 1024; 0; 3; 0; 1300; 15; 9; 0.0166841; 0; 0; 0; -0.398236; -2.66892; -2.55; 
145;151;2019/06/21 14:33:57;455; 355; 7.96639; 454.971; 354.694; 4; 0; 1; -0.199717; -2.04648; -1.84285;-0.199118; -2.05302; -1.8319;-0.000997938; -0.0137544; -0.0497892;-0.0152957; -0.161643; -0.507066;-1; -1; -1; -1; -1; 100; 0; 0; 0; 0; 0;0; 0; 0;0; 0; 0;0; 0; 0;1; -0.199118; -2.05302; -1.5; 0; 0; 0; -3.79272; -42.7082; -3.79272; 670; 228; 1024; 1024; 1024; 204; 1024; 1024; 1024; 0; 3; 0; 1300; 15; 9; 0.0166841; 0; 0; 0; -0.398236; -2.66892; -2.55; 
146;152;2019/06/21 14:33:57;455; 355; 7.96639; 454.964; 354.617; 5; 0; 1; -0.199717; -2.04648; -1.84285;-0.199118; -2.05302; -1.8319;-0.000997938; -0.0137544; -0.0497892;-0.0152957; -0.161643; -0.507066;-1; -1; -1; -1; -1; 100; 0; 0; 0; 0; 0;0; 0; 0;0; 0; 0;0; 0; 0;1; -0.199118; -2.05302; -1.5; 0; 0; 0; -3.79272; -42.7082; -3.79272; 670; 228; 1024; 1024; 1024; 204; 1024; 1024; 1024; 0; 3; 0; 1300; 15; 9; 0.0166841; 0; 0; 0; -0.398236; -2.66892; -2.55; 
147;153;2019/06/21 14:33:57;455; 355; 7.96639; 454.957; 354.541; 6; 0; 1; -0.199717; -2.04648; -1.84285;-0.199118; -2.05302; -1.8319;-0.000997938; -0.0137544; -0.0497892;-0.0152957; -0.161643; -0.507066;-1; -1; -1; -1; -1; 100; 0; 0; 0; 0; 0;0; 0; 0;0; 0; 0;0; 0; 0;1; -0.199118; -2.05302; -1.5; 0; 0; 0; -3.79272; -42.7082; -3.79272; 670; 228; 1024; 1024; 1024; 204; 1024; 1024; 1024; 0; 3; 0; 1300; 15; 9; 0.0166841; 0; 0; 0; -0.398236; -2.66892; -2.55; 
148;154;2019/06/21 14:33:57;455; 355; 7.96639; 454.95; 354.465; 7; 0; 1; -0.199717; -2.04648; -1.84285;-0.199118; -2.05302; -1.8319;-0.000997938; -0.0137544; -0.0497892;-0.0152957; -0.161643; -0.507066;-1; -1; -1; -1; -1; 100; 0; 0; 0; 0; 0;0; 0; 0;0; 0; 0;0; 0; 0;1; -0.199118; -2.05302; -1.5; 0; 0; 0; -3.79272; -42.7082; -3.79272; 670; 228; 1024; 1024; 1024; 204; 1024; 1024; 1024; 0; 3; 0; 1300; 15; 9; 0.0166841; 0; 0; 0; -0.398236; -2.66892; -2.55; 
149;155;2019/06/21 14:33:57;455; 355; 7.96639; 454.943; 354.388; 8; 0; 1; -0.199717; -2.04648; -1.84285;-0.199118; -2.05302; -1.8319;-0.000997938; -0.0137544; -0.0497892;-0.0152957; -0.161643; -0.507066;-1; -1; -1; -1; -1; 100; 0; 0; 0; 0; 0;0; 0; 0;0; 0; 0;0; 0; 0;1; -0.199118; -2.05302; -1.5; 0; 0; 0; -3.79272; -42.7082; -3.79272; 670; 228; 1024; 1024; 1024; 204; 1024; 1024; 1024; 0; 3; 0; 1300; 15; 9; 0.0166841; 0; 0; 0; -0.398236; -2.66892; -2.55; 
