ID;RS_ID;time;imLx_drone; imLy_drone; disparity_drone; imLx_pred_drone; imLy_pred_drone; n_frames_lost_drone; n_frames_tracking_drone; foundL_drone; posX_drone; posY_drone; posZ_drone; sposX_drone; sposY_drone; sposZ_drone; svelX_drone; svelY_drone; svelZ_drone; saccX_drone; saccY_drone; saccZ_drone; imLx_insect; imLy_insect; disparity_insect; imLx_pred_insect; imLy_pred_insect; n_frames_lost_insect; n_frames_tracking_insect; foundL_insect; posX_insect; posY_insect; posZ_insect; sposX_insect; sposY_insect; sposZ_insect; svelX_insect; svelY_insect; svelZ_insect; saccX_insect; saccY_insect; saccZ_insect; valid; posErrX; posErrY; posErrZ; velX; velY; velZ; accX; accY; accZ; hoverthrottle; autoThrottle; autoRoll; autoPitch; autoYaw; joyThrottle; joyRoll; joyPitch; joyYaw; joyArmSwitch; joyModeSwitch; joyTakeoffSwitch; throttleP; throttleI; throttleD; dt; dx; dy; dz; velx_sp; vely_sp; velz_sp;
0;1;2019/06/21 14:44:34;-1; -1; -1; -1; -1; 100; 0; 0; 0; 0; 0;0; 0; 0;0; 0; 0;0; 0; 0;-1; -1; -1; -1; -1; 100; 0; 0; 0; 0; 0;0; 0; 0;0; 0; 0;0; 0; 0;0; 0; 0; 0; 0; 0; 0; 0; 0; 0; 670; 228; 1024; 1024; 1024; 204; 1024; 1024; 1024; 0; 3; 0; 1300; 15; 9; 0; 0; 0; 0; 0; 0; 0; 
1;8;2019/06/21 14:44:34;-1; -1; -1; -1; -1; 100; 0; 0; 0; 0; 0;0; 0; 0;0; 0; 0;0; 0; 0;-1; -1; -1; -1; -1; 100; 0; 0; 0; 0; 0;0; 0; 0;0; 0; 0;0; 0; 0;0; 0; 0; 0; 0; 0; 0; 0; 0; 0; 670; 228; 1024; 1024; 1024; 204; 1024; 1024; 1024; 0; 3; 0; 1300; 15; 9; 0; 0; 0; 0; 0; 0; 0; 
2;9;2019/06/21 14:44:34;-1; -1; -1; -1; -1; 100; 0; 0; 0; 0; 0;0; 0; 0;0; 0; 0;0; 0; 0;-1; -1; -1; -1; -1; 100; 0; 0; 0; 0; 0;0; 0; 0;0; 0; 0;0; 0; 0;0; 0; 0; 0; 0; 0; 0; 0; 0; 0; 670; 228; 1024; 1024; 1024; 204; 1024; 1024; 1024; 0; 3; 0; 1300; 15; 9; 0; 0; 0; 0; 0; 0; 0; 
3;10;2019/06/21 14:44:34;-1; -1; -1; -1; -1; 100; 0; 0; 0; 0; 0;0; 0; 0;0; 0; 0;0; 0; 0;-1; -1; -1; -1; -1; 100; 0; 0; 0; 0; 0;0; 0; 0;0; 0; 0;0; 0; 0;0; 0; 0; 0; 0; 0; 0; 0; 0; 0; 670; 228; 1024; 1024; 1024; 204; 1024; 1024; 1024; 0; 3; 0; 1300; 15; 9; 0; 0; 0; 0; 0; 0; 0; 
4;11;2019/06/21 14:44:34;-1; -1; -1; -1; -1; 101; 0; 0; 0; 0; 0;0; 0; 0;0; 0; 0;0; 0; 0;-1; -1; -1; -1; -1; 100; 0; 0; 0; 0; 0;0; 0; 0;0; 0; 0;0; 0; 0;0; 0; 0; 0; 0; 0; 0; 0; 0; 0; 670; 228; 1024; 1024; 1024; 204; 1024; 1024; 1024; 0; 3; 0; 1300; 15; 9; 0; 0; 0; 0; 0; 0; 0; 
5;12;2019/06/21 14:44:34;-1; -1; -1; -1; -1; 102; 0; 0; 0; 0; 0;0; 0; 0;0; 0; 0;0; 0; 0;-1; -1; -1; -1; -1; 100; 0; 0; 0; 0; 0;0; 0; 0;0; 0; 0;0; 0; 0;0; 0; 0; 0; 0; 0; 0; 0; 0; 0; 670; 228; 1024; 1024; 1024; 204; 1024; 1024; 1024; 0; 3; 0; 1300; 15; 9; 0; 0; 0; 0; 0; 0; 0; 
6;13;2019/06/21 14:44:34;-1; -1; -1; -1; -1; 103; 0; 0; 0; 0; 0;0; 0; 0;0; 0; 0;0; 0; 0;-1; -1; -1; -1; -1; 100; 0; 0; 0; 0; 0;0; 0; 0;0; 0; 0;0; 0; 0;0; 0; 0; 0; 0; 0; 0; 0; 0; 0; 670; 228; 1024; 1024; 1024; 204; 1024; 1024; 1024; 0; 3; 0; 1300; 15; 9; 0; 0; 0; 0; 0; 0; 0; 
7;14;2019/06/21 14:44:34;-1; -1; -1; -1; -1; 104; 0; 0; 0; 0; 0;0; 0; 0;0; 0; 0;0; 0; 0;-1; -1; -1; -1; -1; 100; 0; 0; 0; 0; 0;0; 0; 0;0; 0; 0;0; 0; 0;0; 0; 0; 0; 0; 0; 0; 0; 0; 0; 670; 228; 1024; 1024; 1024; 204; 1024; 1024; 1024; 0; 3; 0; 1300; 15; 9; 0; 0; 0; 0; 0; 0; 0; 
8;15;2019/06/21 14:44:34;-1; -1; -1; -1; -1; 105; 0; 0; 0; 0; 0;0; 0; 0;0; 0; 0;0; 0; 0;-1; -1; -1; -1; -1; 100; 0; 0; 0; 0; 0;0; 0; 0;0; 0; 0;0; 0; 0;0; 0; 0; 0; 0; 0; 0; 0; 0; 0; 670; 228; 1024; 1024; 1024; 204; 1024; 1024; 1024; 0; 3; 0; 1300; 15; 9; 0; 0; 0; 0; 0; 0; 0; 
9;16;2019/06/21 14:44:34;-1; -1; -1; -1; -1; 106; 0; 0; 0; 0; 0;0; 0; 0;0; 0; 0;0; 0; 0;-1; -1; -1; -1; -1; 100; 0; 0; 0; 0; 0;0; 0; 0;0; 0; 0;0; 0; 0;0; 0; 0; 0; 0; 0; 0; 0; 0; 0; 670; 228; 1024; 1024; 1024; 204; 1024; 1024; 1024; 0; 3; 0; 1300; 15; 9; 0; 0; 0; 0; 0; 0; 0; 
10;17;2019/06/21 14:44:34;-1; -1; -1; -1; -1; 107; 0; 0; 0; 0; 0;0; 0; 0;0; 0; 0;0; 0; 0;-1; -1; -1; -1; -1; 100; 0; 0; 0; 0; 0;0; 0; 0;0; 0; 0;0; 0; 0;0; 0; 0; 0; 0; 0; 0; 0; 0; 0; 670; 228; 1024; 1024; 1024; 204; 1024; 1024; 1024; 0; 3; 0; 1300; 15; 9; 0; 0; 0; 0; 0; 0; 0; 
11;18;2019/06/21 14:44:34;-1; -1; -1; -1; -1; 108; 0; 0; 0; 0; 0;0; 0; 0;0; 0; 0;0; 0; 0;-1; -1; -1; -1; -1; 100; 0; 0; 0; 0; 0;0; 0; 0;0; 0; 0;0; 0; 0;0; 0; 0; 0; 0; 0; 0; 0; 0; 0; 670; 228; 1024; 1024; 1024; 204; 1024; 1024; 1024; 0; 3; 0; 1300; 15; 9; 0; 0; 0; 0; 0; 0; 0; 
12;19;2019/06/21 14:44:34;-1; -1; -1; -1; -1; 109; 0; 0; 0; 0; 0;0; 0; 0;0; 0; 0;0; 0; 0;-1; -1; -1; -1; -1; 100; 0; 0; 0; 0; 0;0; 0; 0;0; 0; 0;0; 0; 0;0; 0; 0; 0; 0; 0; 0; 0; 0; 0; 670; 228; 1024; 1024; 1024; 204; 1024; 1024; 1024; 0; 3; 0; 1300; 15; 9; 0; 0; 0; 0; 0; 0; 0; 
13;20;2019/06/21 14:44:34;-1; -1; -1; -1; -1; 110; 0; 0; 0; 0; 0;0; 0; 0;0; 0; 0;0; 0; 0;-1; -1; -1; -1; -1; 100; 0; 0; 0; 0; 0;0; 0; 0;0; 0; 0;0; 0; 0;0; 0; 0; 0; 0; 0; 0; 0; 0; 0; 670; 228; 1024; 1024; 1024; 204; 1024; 1024; 1024; 0; 3; 0; 1300; 15; 9; 0; 0; 0; 0; 0; 0; 0; 
14;21;2019/06/21 14:44:34;-1; -1; -1; -1; -1; 111; 0; 0; 0; 0; 0;0; 0; 0;0; 0; 0;0; 0; 0;-1; -1; -1; -1; -1; 100; 0; 0; 0; 0; 0;0; 0; 0;0; 0; 0;0; 0; 0;0; 0; 0; 0; 0; 0; 0; 0; 0; 0; 670; 228; 1024; 1024; 1024; 204; 1024; 1024; 1024; 0; 3; 0; 1300; 15; 9; 0; 0; 0; 0; 0; 0; 0; 
15;22;2019/06/21 14:44:34;-1; -1; -1; -1; -1; 112; 0; 0; 0; 0; 0;0; 0; 0;0; 0; 0;0; 0; 0;-1; -1; -1; -1; -1; 100; 0; 0; 0; 0; 0;0; 0; 0;0; 0; 0;0; 0; 0;0; 0; 0; 0; 0; 0; 0; 0; 0; 0; 670; 228; 1024; 1024; 1024; 204; 1024; 1024; 1024; 0; 3; 0; 1300; 15; 9; 0; 0; 0; 0; 0; 0; 0; 
16;23;2019/06/21 14:44:34;-1; -1; -1; -1; -1; 113; 0; 0; 0; 0; 0;0; 0; 0;0; 0; 0;0; 0; 0;-1; -1; -1; -1; -1; 100; 0; 0; 0; 0; 0;0; 0; 0;0; 0; 0;0; 0; 0;0; 0; 0; 0; 0; 0; 0; 0; 0; 0; 670; 228; 1024; 1024; 1024; 204; 1024; 1024; 1024; 0; 3; 0; 1300; 15; 9; 0; 0; 0; 0; 0; 0; 0; 
17;24;2019/06/21 14:44:34;-1; -1; -1; -1; -1; 114; 0; 0; 0; 0; 0;0; 0; 0;0; 0; 0;0; 0; 0;-1; -1; -1; -1; -1; 100; 0; 0; 0; 0; 0;0; 0; 0;0; 0; 0;0; 0; 0;0; 0; 0; 0; 0; 0; 0; 0; 0; 0; 670; 228; 1024; 1024; 1024; 204; 1024; 1024; 1024; 0; 3; 0; 1300; 15; 9; 0; 0; 0; 0; 0; 0; 0; 
18;25;2019/06/21 14:44:34;-1; -1; -1; -1; -1; 115; 0; 0; 0; 0; 0;0; 0; 0;0; 0; 0;0; 0; 0;-1; -1; -1; -1; -1; 100; 0; 0; 0; 0; 0;0; 0; 0;0; 0; 0;0; 0; 0;0; 0; 0; 0; 0; 0; 0; 0; 0; 0; 670; 228; 1024; 1024; 1024; 204; 1024; 1024; 1024; 0; 3; 0; 1300; 15; 9; 0; 0; 0; 0; 0; 0; 0; 
19;26;2019/06/21 14:44:34;-1; -1; -1; -1; -1; 116; 0; 0; 0; 0; 0;0; 0; 0;0; 0; 0;0; 0; 0;-1; -1; -1; -1; -1; 100; 0; 0; 0; 0; 0;0; 0; 0;0; 0; 0;0; 0; 0;0; 0; 0; 0; 0; 0; 0; 0; 0; 0; 670; 228; 1024; 1024; 1024; 204; 1024; 1024; 1024; 0; 3; 0; 1300; 15; 9; 0; 0; 0; 0; 0; 0; 0; 
20;27;2019/06/21 14:44:34;-1; -1; -1; -1; -1; 117; 0; 0; 0; 0; 0;0; 0; 0;0; 0; 0;0; 0; 0;-1; -1; -1; -1; -1; 100; 0; 0; 0; 0; 0;0; 0; 0;0; 0; 0;0; 0; 0;0; 0; 0; 0; 0; 0; 0; 0; 0; 0; 670; 228; 1024; 1024; 1024; 204; 1024; 1024; 1024; 0; 3; 0; 1300; 15; 9; 0; 0; 0; 0; 0; 0; 0; 
21;28;2019/06/21 14:44:34;-1; -1; -1; -1; -1; 118; 0; 0; 0; 0; 0;0; 0; 0;0; 0; 0;0; 0; 0;-1; -1; -1; -1; -1; 100; 0; 0; 0; 0; 0;0; 0; 0;0; 0; 0;0; 0; 0;0; 0; 0; 0; 0; 0; 0; 0; 0; 0; 670; 228; 1024; 1024; 1024; 204; 1024; 1024; 1024; 0; 3; 0; 1300; 15; 9; 0; 0; 0; 0; 0; 0; 0; 
22;29;2019/06/21 14:44:34;-1; -1; -1; -1; -1; 119; 0; 0; 0; 0; 0;0; 0; 0;0; 0; 0;0; 0; 0;-1; -1; -1; -1; -1; 100; 0; 0; 0; 0; 0;0; 0; 0;0; 0; 0;0; 0; 0;0; 0; 0; 0; 0; 0; 0; 0; 0; 0; 670; 228; 1024; 1024; 1024; 204; 1024; 1024; 1024; 0; 3; 0; 1300; 15; 9; 0; 0; 0; 0; 0; 0; 0; 
23;30;2019/06/21 14:44:34;-1; -1; -1; -1; -1; 120; 0; 0; 0; 0; 0;0; 0; 0;0; 0; 0;0; 0; 0;-1; -1; -1; -1; -1; 100; 0; 0; 0; 0; 0;0; 0; 0;0; 0; 0;0; 0; 0;0; 0; 0; 0; 0; 0; 0; 0; 0; 0; 670; 228; 1024; 1024; 1024; 204; 1024; 1024; 1024; 0; 3; 0; 1300; 15; 9; 0; 0; 0; 0; 0; 0; 0; 
24;31;2019/06/21 14:44:34;-1; -1; -1; -1; -1; 121; 0; 0; 0; 0; 0;0; 0; 0;0; 0; 0;0; 0; 0;-1; -1; -1; -1; -1; 100; 0; 0; 0; 0; 0;0; 0; 0;0; 0; 0;0; 0; 0;0; 0; 0; 0; 0; 0; 0; 0; 0; 0; 670; 228; 1024; 1024; 1024; 204; 1024; 1024; 1024; 0; 3; 0; 1300; 15; 9; 0; 0; 0; 0; 0; 0; 0; 
25;32;2019/06/21 14:44:34;-1; -1; -1; -1; -1; 122; 0; 0; 0; 0; 0;0; 0; 0;0; 0; 0;0; 0; 0;-1; -1; -1; -1; -1; 100; 0; 0; 0; 0; 0;0; 0; 0;0; 0; 0;0; 0; 0;0; 0; 0; 0; 0; 0; 0; 0; 0; 0; 670; 228; 1024; 1024; 1024; 204; 1024; 1024; 1024; 0; 3; 0; 1300; 15; 9; 0; 0; 0; 0; 0; 0; 0; 
26;33;2019/06/21 14:44:34;-1; -1; -1; -1; -1; 123; 0; 0; 0; 0; 0;0; 0; 0;0; 0; 0;0; 0; 0;-1; -1; -1; -1; -1; 100; 0; 0; 0; 0; 0;0; 0; 0;0; 0; 0;0; 0; 0;0; 0; 0; 0; 0; 0; 0; 0; 0; 0; 670; 228; 1024; 1024; 1024; 204; 1024; 1024; 1024; 0; 3; 0; 1300; 15; 9; 0; 0; 0; 0; 0; 0; 0; 
27;34;2019/06/21 14:44:34;-1; -1; -1; -1; -1; 124; 0; 0; 0; 0; 0;0; 0; 0;0; 0; 0;0; 0; 0;-1; -1; -1; -1; -1; 100; 0; 0; 0; 0; 0;0; 0; 0;0; 0; 0;0; 0; 0;0; 0; 0; 0; 0; 0; 0; 0; 0; 0; 670; 228; 1024; 1024; 1024; 204; 1024; 1024; 1024; 0; 3; 0; 1300; 15; 9; 0; 0; 0; 0; 0; 0; 0; 
28;35;2019/06/21 14:44:34;-1; -1; -1; -1; -1; 125; 0; 0; 0; 0; 0;0; 0; 0;0; 0; 0;0; 0; 0;-1; -1; -1; -1; -1; 100; 0; 0; 0; 0; 0;0; 0; 0;0; 0; 0;0; 0; 0;0; 0; 0; 0; 0; 0; 0; 0; 0; 0; 670; 228; 1024; 1024; 1024; 204; 1024; 1024; 1024; 0; 3; 0; 1300; 15; 9; 0; 0; 0; 0; 0; 0; 0; 
29;36;2019/06/21 14:44:34;-1; -1; -1; -1; -1; 126; 0; 0; 0; 0; 0;0; 0; 0;0; 0; 0;0; 0; 0;-1; -1; -1; -1; -1; 100; 0; 0; 0; 0; 0;0; 0; 0;0; 0; 0;0; 0; 0;0; 0; 0; 0; 0; 0; 0; 0; 0; 0; 670; 228; 1024; 1024; 1024; 204; 1024; 1024; 1024; 0; 3; 0; 1300; 15; 9; 0; 0; 0; 0; 0; 0; 0; 
30;37;2019/06/21 14:44:34;-1; -1; -1; -1; -1; 127; 0; 0; 0; 0; 0;0; 0; 0;0; 0; 0;0; 0; 0;-1; -1; -1; -1; -1; 100; 0; 0; 0; 0; 0;0; 0; 0;0; 0; 0;0; 0; 0;0; 0; 0; 0; 0; 0; 0; 0; 0; 0; 670; 228; 1024; 1024; 1024; 204; 1024; 1024; 1024; 0; 3; 0; 1300; 15; 9; 0; 0; 0; 0; 0; 0; 0; 
31;38;2019/06/21 14:44:34;-1; -1; -1; -1; -1; 128; 0; 0; 0; 0; 0;0; 0; 0;0; 0; 0;0; 0; 0;-1; -1; -1; -1; -1; 100; 0; 0; 0; 0; 0;0; 0; 0;0; 0; 0;0; 0; 0;0; 0; 0; 0; 0; 0; 0; 0; 0; 0; 670; 228; 1024; 1024; 1024; 204; 1024; 1024; 1024; 0; 3; 0; 1300; 15; 9; 0; 0; 0; 0; 0; 0; 0; 
32;39;2019/06/21 14:44:34;451.622; 348.703; 7.75617; -1; -1; 0; 1; 1; -0.183395; -2.06795; -1.91484;-0.183395; -2.06795; -1.91484;0; 0; 0;0; 0; 0;-1; -1; -1; -1; -1; 100; 0; 0; 0; 0; 0;0; 0; 0;0; 0; 0;0; 0; 0;1; -0.183395; -2.06795; -1.5; 0; 0; 0; -3.4845; -42.7983; -3.4845; 670; 228; 1024; 1024; 1024; 204; 1024; 1024; 1024; 0; 3; 0; 1300; 15; 9; 0.650665; 0; 0; 0; -0.36679; -2.68834; -2.55; 
33;40;2019/06/21 14:44:34;451.316; 346.158; 7.71714; 451.622; 348.703; 0; 2; 1; -0.182345; -2.0646; -1.93347;-0.18308; -2.06695; -1.92043;0; 0; 0;0; 0; 0;-1; -1; -1; -1; -1; 100; 0; 0; 0; 0; 0;0; 0; 0;0; 0; 0;0; 0; 0;1; -0.18308; -2.06695; -1.5; 0; 0; 0; -3.47852; -42.7775; -3.47852; 670; 228; 1024; 1024; 1024; 204; 1024; 1024; 1024; 0; 3; 0; 1300; 15; 9; 0.016684; 0; 0; 0; -0.36616; -2.68703; -2.55; 
34;41;2019/06/21 14:44:34;451.316; 346.158; 7.69221; 451.316; 346.158; 0; 3; 1; -0.182936; -2.07129; -1.93973;-0.183037; -2.06825; -1.92622;0; 0; 0;0; 0; 0;-1; -1; -1; -1; -1; 100; 0; 0; 0; 0; 0;0; 0; 0;0; 0; 0;0; 0; 0;1; -0.183037; -2.06825; -1.5; 0; 0; 0; -3.4777; -42.8045; -3.4777; 670; 228; 1024; 1024; 1024; 204; 1024; 1024; 1024; 0; 3; 0; 1300; 15; 9; 0.016684; 0; 0; 0; -0.366073; -2.68872; -2.55; 
35;42;2019/06/21 14:44:34;451.316; 346.158; 7.69922; 451.316; 346.158; 0; 4; 1; -0.182769; -2.0694; -1.93797;-0.182956; -2.0686; -1.92974;0; 0; 0;0; 0; 0;-1; -1; -1; -1; -1; 100; 0; 0; 0; 0; 0;0; 0; 0;0; 0; 0;0; 0; 0;1; -0.182956; -2.0686; -1.5; 0; 0; 0; -3.47617; -42.8117; -3.47617; 670; 228; 1024; 1024; 1024; 204; 1024; 1024; 1024; 0; 3; 0; 1300; 15; 9; 0.016684; 0; 0; 0; -0.365913; -2.68917; -2.55; 
36;43;2019/06/21 14:44:34;451.316; 346.158; 7.68211; 451.316; 346.158; 0; 5; 1; -0.183176; -2.07401; -1.94229;-0.183022; -2.07022; -1.93351;0; 0; 0;0; 0; 0;-1; -1; -1; -1; -1; 100; 0; 0; 0; 0; 0;0; 0; 0;0; 0; 0;0; 0; 0;1; -0.183022; -2.07022; -1.5; 0; 0; 0; -3.47743; -42.8453; -3.47743; 670; 228; 1024; 1024; 1024; 204; 1024; 1024; 1024; 0; 3; 0; 1300; 15; 9; 0.016683; 0; 0; 0; -0.366045; -2.69129; -2.55; 
37;44;2019/06/21 14:44:34;451.316; 346.158; 7.70016; 451.316; 346.158; 0; 6; 1; -0.182747; -2.06915; -1.93773;-0.18294; -2.0699; -1.93477;0; 0; 0;0; 0; 0;-1; -1; -1; -1; -1; 100; 0; 0; 0; 0; 0;0; 0; 0;0; 0; 0;0; 0; 0;1; -0.18294; -2.0699; -1.5; 0; 0; 0; -3.47586; -42.8387; -3.47586; 670; 228; 1024; 1024; 1024; 204; 1024; 1024; 1024; 0; 3; 0; 1300; 15; 9; 0.016684; 0; 0; 0; -0.36588; -2.69087; -2.55; 
38;45;2019/06/21 14:44:34;451.316; 346.158; 7.69946; 451.316; 346.158; 0; 7; 1; -0.182764; -2.06934; -1.93791;-0.182887; -2.06973; -1.93571;0; 0; 0;0; 0; 0;-1; -1; -1; -1; -1; 100; 0; 0; 0; 0; 0;0; 0; 0;0; 0; 0;0; 0; 0;1; -0.182887; -2.06973; -1.5; 0; 0; 0; -3.47485; -42.8352; -3.47485; 670; 228; 1024; 1024; 1024; 204; 1024; 1024; 1024; 0; 3; 0; 1300; 15; 9; 0.016684; 0; 0; 0; -0.365774; -2.69065; -2.55; 
39;46;2019/06/21 14:44:34;451.316; 346.158; 7.70649; 451.316; 346.158; 0; 8; 1; -0.182597; -2.06745; -1.93614;-0.1828; -2.06905; -1.93584;0.00416387; -0.0190844; -0.18674;0.0166385; -0.0762599; -0.746199;-1; -1; -1; -1; -1; 100; 0; 0; 0; 0; 0;0; 0; 0;0; 0; 0;0; 0; 0;1; -0.1828; -2.06905; -1.5; 0; 0; 0; -3.43364; -43.1248; -3.43364; 670; 228; 1024; 1024; 1024; 204; 1024; 1024; 1024; 0; 3; 0; 1300; 15; 9; 0.016683; 0; 0; 0; -0.3656; -2.68976; -2.55; 
40;47;2019/06/21 14:44:34;451.316; 346.158; 7.70983; 451.277; 345.831; 0; 9; 1; -0.182518; -2.06656; -1.9353;-0.182715; -2.0683; -1.93568;0.00378257; -0.0116612; -0.149853;0.025098; -0.0923532; -1.04652;-1; -1; -1; -1; -1; 100; 0; 0; 0; 0; 0;0; 0; 0;0; 0; 0;0; 0; 0;1; -0.182715; -2.0683; -1.5; 0; 0; 0; -3.43566; -42.9912; -3.43566; 670; 228; 1024; 1024; 1024; 204; 1024; 1024; 1024; 0; 3; 0; 1300; 15; 9; 0.016684; 0; 0; 0; -0.365431; -2.68879; -2.55; 
41;48;2019/06/21 14:44:34;451.316; 346.158; 7.68678; 451.283; 345.889; 0; 10; 1; -0.183065; -2.07275; -1.9411;-0.18282; -2.06964; -1.93731;0.00281383; -0.0111591; -0.120138;0.0263026; -0.100003; -1.10798;-1; -1; -1; -1; -1; 100; 0; 0; 0; 0; 0;0; 0; 0;0; 0; 0;0; 0; 0;1; -0.18282; -2.06964; -1.5; 0; 0; 0; -3.44685; -43.0109; -3.44685; 670; 228; 1024; 1024; 1024; 204; 1024; 1024; 1024; 0; 3; 0; 1300; 15; 9; 0.016684; 0; 0; 0; -0.36564; -2.69053; -2.55; 
42;49;2019/06/21 14:44:34;451.316; 346.158; 7.70189; 451.29; 345.946; 0; 11; 1; -0.182706; -2.06869; -1.9373;-0.182786; -2.06935; -1.9373;0.00263325; -0.00322383; -0.0872624;0.0263038; -0.0728837; -1.01348;-1; -1; -1; -1; -1; 100; 0; 0; 0; 0; 0;0; 0; 0;0; 0; 0;0; 0; 0;1; -0.182786; -2.06935; -1.5; 0; 0; 0; -3.44792; -42.8786; -3.44792; 670; 228; 1024; 1024; 1024; 204; 1024; 1024; 1024; 0; 3; 0; 1300; 15; 9; 0.016684; 0; 0; 0; -0.365572; -2.69016; -2.55; 
43;50;2019/06/21 14:44:34;451.316; 346.158; 7.69569; 451.296; 345.995; 0; 12; 1; -0.182853; -2.07035; -1.93886;-0.182806; -2.06965; -1.93777;0.00211406; -0.000945395; -0.0643329;0.0242299; -0.047508; -0.865156;-1; -1; -1; -1; -1; 100; 0; 0; 0; 0; 0;0; 0; 0;0; 0; 0;0; 0; 0;1; -0.182806; -2.06965; -1.5; 0; 0; 0; -3.45323; -42.8486; -3.45323; 670; 228; 1024; 1024; 1024; 204; 1024; 1024; 1024; 0; 3; 0; 1300; 15; 9; 0.016683; 0; 0; 0; -0.365612; -2.69055; -2.55; 
44;51;2019/06/21 14:44:34;451.316; 346.158; 7.69091; 451.301; 346.035; 0; 13; 1; -0.182967; -2.07164; -1.94006;-0.182854; -2.07025; -1.93846;0.00139854; -0.0026346; -0.0495682;0.0201264; -0.0390324; -0.717164;-1; -1; -1; -1; -1; 100; 0; 0; 0; 0; 0;0; 0; 0;0; 0; 0;0; 0; 0;1; -0.182854; -2.07025; -1.5; 0; 0; 0; -3.46095; -42.8878; -3.46095; 670; 228; 1024; 1024; 1024; 204; 1024; 1024; 1024; 0; 3; 0; 1300; 15; 9; 0.016684; 0; 0; 0; -0.365709; -2.69132; -2.55; 
45;52;2019/06/21 14:44:34;451.316; 346.158; 7.69675; 451.305; 346.067; 0; 14; 1; -0.182828; -2.07007; -1.93859;-0.182846; -2.0702; -1.9385;0.000653051; -0.00616702; -0.0403573;-0.00195301; 0.028197; 0.15463;-1; -1; -1; -1; -1; 100; 0; 0; 0; 0; 0;0; 0; 0;0; 0; 0;0; 0; 0;1; -0.182846; -2.0702; -1.5; 0; 0; 0; -3.46788; -42.943; -3.46788; 670; 228; 1024; 1024; 1024; 204; 1024; 1024; 1024; 0; 3; 0; 1300; 15; 9; 0.016684; 0; 0; 0; -0.365693; -2.69125; -2.55; 
46;53;2019/06/21 14:44:34;451.316; 346.158; 7.69972; 451.308; 346.091; 0; 15; 1; -0.182757; -2.06927; -1.93784;-0.18282; -2.06992; -1.9383;-2.55722e-05; -0.0101614; -0.0346912;-0.0163888; 0.0229111; 0.552958;-1; -1; -1; -1; -1; 100; 0; 0; 0; 0; 0;0; 0; 0;0; 0; 0;0; 0; 0;1; -0.18282; -2.06992; -1.5; 0; 0; 0; -3.47382; -43.0008; -3.47382; 670; 228; 1024; 1024; 1024; 204; 1024; 1024; 1024; 0; 3; 0; 1300; 15; 9; 0.016683; 0; 0; 0; -0.36564; -2.69089; -2.55; 
47;54;2019/06/21 14:44:34;451.316; 346.158; 7.69778; 451.31; 346.109; 0; 16; 1; -0.182803; -2.06979; -1.93833;-0.182815; -2.06988; -1.93831;6.15201e-06; -0.00706862; -0.0248228;-0.0210526; 0.0300918; 0.712649;-1; -1; -1; -1; -1; 100; 0; 0; 0; 0; 0;0; 0; 0;0; 0; 0;0; 0; 0;1; -0.182815; -2.06988; -1.5; 0; 0; 0; -3.47342; -42.9508; -3.47342; 670; 228; 1024; 1024; 1024; 204; 1024; 1024; 1024; 0; 3; 0; 1300; 15; 9; 0.016684; 0; 0; 0; -0.36563; -2.69084; -2.55; 
48;55;2019/06/21 14:44:34;451.316; 346.158; 7.70318; 451.312; 346.123; 0; 17; 1; -0.182675; -2.06834; -1.93697;-0.182773; -2.06942; -1.93791;5.54349e-05; -0.00450603; -0.0173102;-0.0229323; 0.0129315; 0.707113;-1; -1; -1; -1; -1; 100; 0; 0; 0; 0; 0;0; 0; 0;0; 0; 0;0; 0; 0;1; -0.182773; -2.06942; -1.5; 0; 0; 0; -3.47216; -42.9004; -3.47216; 670; 228; 1024; 1024; 1024; 204; 1024; 1024; 1024; 0; 3; 0; 1300; 15; 9; 0.016684; 0; 0; 0; -0.365546; -2.69024; -2.55; 
49;56;2019/06/21 14:44:34;451.316; 346.158; 7.6879; 451.313; 346.133; 0; 18; 1; -0.183039; -2.07245; -1.94082;-0.182853; -2.07033; -1.93878;-0.000152752; -0.0054045; -0.0144336;-0.0228173; -0.0100591; 0.62366;-1; -1; -1; -1; -1; 100; 0; 0; 0; 0; 0;0; 0; 0;0; 0; 0;0; 0; 0;1; -0.182853; -2.07033; -1.5; 0; 0; 0; -3.47565; -42.9336; -3.47565; 670; 228; 1024; 1024; 1024; 204; 1024; 1024; 1024; 0; 3; 0; 1300; 15; 9; 0.016684; 0; 0; 0; -0.365705; -2.69143; -2.55; 
50;57;2019/06/21 14:44:34;451.316; 346.158; 7.69665; 451.314; 346.14; 0; 19; 1; -0.18283; -2.0701; -1.93862;-0.182846; -2.07026; -1.93873;-5.83069e-05; -0.00328176; -0.00975864;-0.0195118; -0.00862149; 0.533272;-1; -1; -1; -1; -1; 100; 0; 0; 0; 0; 0;0; 0; 0;0; 0; 0;0; 0; 0;1; -0.182846; -2.07026; -1.5; 0; 0; 0; -3.47463; -42.8983; -3.47463; 670; 228; 1024; 1024; 1024; 204; 1024; 1024; 1024; 0; 3; 0; 1300; 15; 9; 0.016683; 0; 0; 0; -0.365692; -2.69134; -2.55; 
51;58;2019/06/21 14:44:34;451.316; 346.158; 7.68857; 451.314; 346.145; 0; 20; 1; -0.183022; -2.07227; -1.94065;-0.182899; -2.07086; -1.93931;-0.000244638; -0.00463377; -0.00909437;-0.0152942; 0.000953887; 0.444887;-1; -1; -1; -1; -1; 100; 0; 0; 0; 0; 0;0; 0; 0;0; 0; 0;0; 0; 0;1; -0.182899; -2.07086; -1.5; 0; 0; 0; -3.4774; -42.9323; -3.4774; 670; 228; 1024; 1024; 1024; 204; 1024; 1024; 1024; 0; 3; 0; 1300; 15; 9; 0.016684; 0; 0; 0; -0.365798; -2.69212; -2.55; 
52;59;2019/06/21 14:44:35;451.316; 346.158; 7.69033; 451.315; 346.149; 0; 21; 1; -0.182981; -2.0718; -1.94021;-0.182923; -2.07114; -1.93958;-0.000560966; -0.00767329; -0.0105592;-0.0113159; 0.0105147; 0.363361;-1; -1; -1; -1; -1; 100; 0; 0; 0; 0; 0;0; 0; 0;0; 0; 0;0; 0; 0;1; -0.182923; -2.07114; -1.5; 0; 0; 0; -3.48087; -42.9865; -3.48087; 670; 228; 1024; 1024; 1024; 204; 1024; 1024; 1024; 0; 3; 0; 1300; 15; 9; 0.016684; 0; 0; 0; -0.365847; -2.69249; -2.55; 
53;60;2019/06/21 14:44:35;451.316; 346.158; 7.69033; 451.315; 346.151; 1; 0; 1; -0.182981; -2.0718; -1.94021;-0.182923; -2.07114; -1.93958;-0.000560966; -0.00767329; -0.0105592;-0.0113159; 0.0105147; 0.363361;-1; -1; -1; -1; -1; 100; 0; 0; 0; 0; 0;0; 0; 0;0; 0; 0;0; 0; 0;1; -0.182923; -2.07114; -1.5; 0; 0; 0; -3.48087; -42.9865; -3.48087; 670; 228; 1024; 1024; 1024; 204; 1024; 1024; 1024; 0; 3; 0; 1300; 15; 9; 0.016684; 0; 0; 0; -0.365847; -2.69249; -2.55; 
54;61;2019/06/21 14:44:35;451.316; 346.158; 7.69033; 451.314; 346.145; 2; 0; 1; -0.182981; -2.0718; -1.94021;-0.182923; -2.07114; -1.93958;-0.000560966; -0.00767329; -0.0105592;-0.0113159; 0.0105147; 0.363361;-1; -1; -1; -1; -1; 100; 0; 0; 0; 0; 0;0; 0; 0;0; 0; 0;0; 0; 0;1; -0.182923; -2.07114; -1.5; 0; 0; 0; -3.48087; -42.9865; -3.48087; 670; 228; 1024; 1024; 1024; 204; 1024; 1024; 1024; 0; 3; 0; 1300; 15; 9; 0.016684; 0; 0; 0; -0.365847; -2.69249; -2.55; 
55;62;2019/06/21 14:44:35;451.316; 346.158; 7.69033; 451.313; 346.138; 3; 0; 1; -0.182981; -2.0718; -1.94021;-0.182923; -2.07114; -1.93958;-0.000560966; -0.00767329; -0.0105592;-0.0113159; 0.0105147; 0.363361;-1; -1; -1; -1; -1; 100; 0; 0; 0; 0; 0;0; 0; 0;0; 0; 0;0; 0; 0;1; -0.182923; -2.07114; -1.5; 0; 0; 0; -3.48087; -42.9865; -3.48087; 670; 228; 1024; 1024; 1024; 204; 1024; 1024; 1024; 0; 3; 0; 1300; 15; 9; 0.016684; 0; 0; 0; -0.365847; -2.69249; -2.55; 
56;63;2019/06/21 14:44:35;451.316; 346.158; 7.69033; 451.313; 346.132; 4; 0; 1; -0.182981; -2.0718; -1.94021;-0.182923; -2.07114; -1.93958;-0.000560966; -0.00767329; -0.0105592;-0.0113159; 0.0105147; 0.363361;-1; -1; -1; -1; -1; 100; 0; 0; 0; 0; 0;0; 0; 0;0; 0; 0;0; 0; 0;1; -0.182923; -2.07114; -1.5; 0; 0; 0; -3.48087; -42.9865; -3.48087; 670; 228; 1024; 1024; 1024; 204; 1024; 1024; 1024; 0; 3; 0; 1300; 15; 9; 0.016684; 0; 0; 0; -0.365847; -2.69249; -2.55; 
57;64;2019/06/21 14:44:35;451.316; 346.158; 7.69033; 451.312; 346.125; 5; 0; 1; -0.182981; -2.0718; -1.94021;-0.182923; -2.07114; -1.93958;-0.000560966; -0.00767329; -0.0105592;-0.0113159; 0.0105147; 0.363361;-1; -1; -1; -1; -1; 100; 0; 0; 0; 0; 0;0; 0; 0;0; 0; 0;0; 0; 0;1; -0.182923; -2.07114; -1.5; 0; 0; 0; -3.48087; -42.9865; -3.48087; 670; 228; 1024; 1024; 1024; 204; 1024; 1024; 1024; 0; 3; 0; 1300; 15; 9; 0.016684; 0; 0; 0; -0.365847; -2.69249; -2.55; 
58;65;2019/06/21 14:44:35;451.316; 346.158; 7.69033; 451.311; 346.119; 6; 0; 1; -0.182981; -2.0718; -1.94021;-0.182923; -2.07114; -1.93958;-0.000560966; -0.00767329; -0.0105592;-0.0113159; 0.0105147; 0.363361;-1; -1; -1; -1; -1; 100; 0; 0; 0; 0; 0;0; 0; 0;0; 0; 0;0; 0; 0;1; -0.182923; -2.07114; -1.5; 0; 0; 0; -3.48087; -42.9865; -3.48087; 670; 228; 1024; 1024; 1024; 204; 1024; 1024; 1024; 0; 3; 0; 1300; 15; 9; 0.016684; 0; 0; 0; -0.365847; -2.69249; -2.55; 
59;66;2019/06/21 14:44:35;451.286; 343.571; 7.62526; 451.31; 346.112; 0; 1; 1; -0.184345; -2.07527; -1.96597;-0.18335; -2.07238; -1.9475;-0.0014056; -0.00960183; -0.0246888;-0.00961014; 0.0012476; 0.218284;-1; -1; -1; -1; -1; 100; 0; 0; 0; 0; 0;0; 0; 0;0; 0; 0;0; 0; 0;1; -0.18335; -2.07238; -1.5; 0; 0; 0; -3.497; -43.0429; -3.497; 670; 228; 1024; 1024; 1024; 204; 1024; 1024; 1024; 0; 3; 0; 1300; 15; 9; 0.116786; 0; 0; 0; -0.3667; -2.6941; -2.55; 
60;67;2019/06/21 14:44:35;451.316; 346.158; 7.70655; 451.285; 343.542; 0; 2; 1; -0.182596; -2.06744; -1.93613;-0.183124; -2.0709; -1.94409;-0.00154383; -0.00871779; -0.0271531;-0.00896134; -0.00766635; 0.111305;-1; -1; -1; -1; -1; 100; 0; 0; 0; 0; 0;0; 0; 0;0; 0; 0;0; 0; 0;1; -0.183124; -2.0709; -1.5; 0; 0; 0; -3.49401; -42.9981; -3.49401; 670; 228; 1024; 1024; 1024; 204; 1024; 1024; 1024; 0; 3; 0; 1300; 15; 9; 0.0166841; 0; 0; 0; -0.366247; -2.69217; -2.55; 
61;68;2019/06/21 14:44:35;451.316; 346.158; 7.71223; 451.315; 346.121; 0; 3; 1; -0.182461; -2.06591; -1.9347;-0.182925; -2.0694; -1.94127;-0.00107042; -0.003381; -0.0212593;-0.00721027; -0.000556942; 0.0531456;-1; -1; -1; -1; -1; 100; 0; 0; 0; 0; 0;0; 0; 0;0; 0; 0;0; 0; 0;1; -0.182925; -2.0694; -1.5; 0; 0; 0; -3.48574; -42.8822; -3.48574; 670; 228; 1024; 1024; 1024; 204; 1024; 1024; 1024; 0; 3; 0; 1300; 15; 9; 0.016683; 0; 0; 0; -0.36585; -2.69022; -2.55; 
62;69;2019/06/21 14:44:35;451.316; 346.158; 7.71199; 451.315; 346.123; 0; 4; 1; -0.182467; -2.06598; -1.93476;-0.182787; -2.06838; -1.93932;-0.000525102; 0.00173503; -0.0139212;-0.0052588; 0.00968914; 0.0235708;-1; -1; -1; -1; -1; 100; 0; 0; 0; 0; 0;0; 0; 0;0; 0; 0;0; 0; 0;1; -0.182787; -2.06838; -1.5; 0; 0; 0; -3.47795; -42.7795; -3.47795; 670; 228; 1024; 1024; 1024; 204; 1024; 1024; 1024; 0; 3; 0; 1300; 15; 9; 0.0166841; 0; 0; 0; -0.365575; -2.68889; -2.55; 
63;70;2019/06/21 14:44:35;451.316; 346.158; 7.69977; 451.315; 346.128; 0; 5; 1; -0.182756; -2.06926; -1.93783;-0.182778; -2.06864; -1.93887;-7.35225e-05; 0.00548154; -0.00747718;-0.0028134; 0.0260234; 0.0173736;-1; -1; -1; -1; -1; 100; 0; 0; 0; 0; 0;0; 0; 0;0; 0; 0;0; 0; 0;1; -0.182778; -2.06864; -1.5; 0; 0; 0; -3.47348; -42.7253; -3.47348; 670; 228; 1024; 1024; 1024; 204; 1024; 1024; 1024; 0; 3; 0; 1300; 15; 9; 0.0166839; 0; 0; 0; -0.365556; -2.68923; -2.55; 
64;71;2019/06/21 14:44:35;451.316; 346.158; 7.70284; 451.315; 346.134; 0; 6; 1; -0.182684; -2.06843; -1.93706;-0.18275; -2.06858; -1.93833;0.000302996; 0.00841253; -0.00198547;3.8116e-05; 0.0477527; 0.0275541;-1; -1; -1; -1; -1; 100; 0; 0; 0; 0; 0;0; 0; 0;0; 0; 0;0; 0; 0;1; -0.18275; -2.06858; -1.5; 0; 0; 0; -3.46937; -42.6774; -3.46937; 670; 228; 1024; 1024; 1024; 204; 1024; 1024; 1024; 0; 3; 0; 1300; 15; 9; 0.0166841; 0; 0; 0; -0.365499; -2.68915; -2.55; 
65;72;2019/06/21 14:44:35;451.316; 346.158; 7.70396; 451.316; 346.139; 0; 7; 1; -0.182657; -2.06813; -1.93678;-0.182722; -2.06844; -1.93786;0.00269163; 0.0207814; 0.0373093;0.0163951; 0.150061; 0.264272;-1; -1; -1; -1; -1; 100; 0; 0; 0; 0; 0;0; 0; 0;0; 0; 0;0; 0; 0;1; -0.182722; -2.06844; -1.5; 0; 0; 0; -3.44614; -42.4777; -3.44614; 670; 228; 1024; 1024; 1024; 204; 1024; 1024; 1024; 0; 3; 0; 1300; 15; 9; 0.016683; 0; 0; 0; -0.365444; -2.68898; -2.55; 
66;73;2019/06/21 14:44:35;451.316; 346.158; 7.71292; 451.316; 346.192; 0; 8; 1; -0.182445; -2.06573; -1.93453;-0.182639; -2.06763; -1.93686;0.00355272; 0.0255304; 0.0512539;0.0302025; 0.22689; 0.471872;-1; -1; -1; -1; -1; 100; 0; 0; 0; 0; 0;0; 0; 0;0; 0; 0;0; 0; 0;1; -0.182639; -2.06763; -1.5; 0; 0; 0; -3.43638; -42.3852; -3.43638; 670; 228; 1024; 1024; 1024; 204; 1024; 1024; 1024; 0; 3; 0; 1300; 15; 9; 0.0166839; 0; 0; 0; -0.365277; -2.68792; -2.55; 
67;74;2019/06/21 14:44:35;451.316; 346.158; 7.68714; 451.316; 346.211; 0; 9; 1; -0.183057; -2.07266; -1.94102;-0.182764; -2.06914; -1.93811;0.00277398; 0.0163767; 0.0433884;0.0334833; 0.215083; 0.541448;-1; -1; -1; -1; -1; 100; 0; 0; 0; 0; 0;0; 0; 0;0; 0; 0;0; 0; 0;1; -0.182764; -2.06914; -1.5; 0; 0; 0; -3.44616; -42.5622; -3.44616; 670; 228; 1024; 1024; 1024; 204; 1024; 1024; 1024; 0; 3; 0; 1300; 15; 9; 0.0166841; 0; 0; 0; -0.365528; -2.68988; -2.55; 
68;75;2019/06/21 14:44:35;451.316; 346.158; 7.70603; 451.316; 346.212; 0; 10; 1; -0.182608; -2.06758; -1.93626;-0.182717; -2.06867; -1.93755;0.00194478; 0.00865037; 0.033084;0.0299594; 0.156683; 0.512698;-1; -1; -1; -1; -1; 100; 0; 0; 0; 0; 0;0; 0; 0;0; 0; 0;0; 0; 0;1; -0.182717; -2.06867; -1.5; 0; 0; 0; -3.45315; -42.6755; -3.45315; 670; 228; 1024; 1024; 1024; 204; 1024; 1024; 1024; 0; 3; 0; 1300; 15; 9; 0.016683; 0; 0; 0; -0.365434; -2.68927; -2.55; 
69;76;2019/06/21 14:44:35;451.316; 346.158; 7.69218; 451.316; 346.206; 0; 11; 1; -0.182937; -2.0713; -1.93974;-0.182783; -2.06946; -1.93821;0.0011468; 0.00191769; 0.0224922;0.022852; 0.079769; 0.427374;-1; -1; -1; -1; -1; 100; 0; 0; 0; 0; 0;0; 0; 0;0; 0; 0;0; 0; 0;1; -0.182783; -2.06946; -1.5; 0; 0; 0; -3.46198; -42.799; -3.46198; 670; 228; 1024; 1024; 1024; 204; 1024; 1024; 1024; 0; 3; 0; 1300; 15; 9; 0.0166841; 0; 0; 0; -0.365566; -2.6903; -2.55; 
70;77;2019/06/21 14:44:35;451.316; 346.158; 7.69056; 451.316; 346.198; 0; 12; 1; -0.182975; -2.07174; -1.94015;-0.182841; -2.07014; -1.93879;0.000324269; -0.00509912; 0.0116361;0.0137962; -0.00613014; 0.310855;-1; -1; -1; -1; -1; 100; 0; 0; 0; 0; 0;0; 0; 0;0; 0; 0;0; 0; 0;1; -0.182841; -2.07014; -1.5; 0; 0; 0; -3.47089; -42.9249; -3.47089; 670; 228; 1024; 1024; 1024; 204; 1024; 1024; 1024; 0; 3; 0; 1300; 15; 9; 0.0166839; 0; 0; 0; -0.365681; -2.69119; -2.55; 
71;78;2019/06/21 14:44:35;451.316; 346.158; 7.71702; 451.316; 346.19; 0; 13; 1; -0.182348; -2.06463; -1.9335;-0.182693; -2.06849; -1.9372;0.000310492; -0.00323762; 0.00960921;-0.00123703; -0.0996553; 0.0758269;-1; -1; -1; -1; -1; 100; 0; 0; 0; 0; 0;0; 0; 0;0; 0; 0;0; 0; 0;1; -0.182693; -2.06849; -1.5; 0; 0; 0; -3.46821; -42.861; -3.46821; 670; 228; 1024; 1024; 1024; 204; 1024; 1024; 1024; 0; 3; 0; 1300; 15; 9; 0.0166841; 0; 0; 0; -0.365386; -2.68904; -2.55; 
72;79;2019/06/21 14:44:35;451.316; 346.158; 7.69907; 451.316; 346.182; 0; 14; 1; -0.182773; -2.06945; -1.93801;-0.182717; -2.06878; -1.93744;-0.000125893; -0.00652126; 0.00343379;-0.0154417; -0.187869; -0.145589;-1; -1; -1; -1; -1; 100; 0; 0; 0; 0; 0;0; 0; 0;0; 0; 0;0; 0; 0;1; -0.182717; -2.06878; -1.5; 0; 0; 0; -3.47282; -42.9192; -3.47282; 670; 228; 1024; 1024; 1024; 204; 1024; 1024; 1024; 0; 3; 0; 1300; 15; 9; 0.016683; 0; 0; 0; -0.365434; -2.68941; -2.55; 
73;80;2019/06/21 14:44:35;451.316; 346.158; 7.68457; 451.316; 346.176; 0; 15; 1; -0.183118; -2.07335; -1.94166;-0.182837; -2.07015; -1.93871;-0.000367242; -0.0079465; -0.00034816;-0.0218171; -0.209915; -0.262122;-1; -1; -1; -1; -1; 100; 0; 0; 0; 0; 0;0; 0; 0;0; 0; 0;0; 0; 0;1; -0.182837; -2.07015; -1.5; 0; 0; 0; -3.47739; -42.9703; -3.47739; 670; 228; 1024; 1024; 1024; 204; 1024; 1024; 1024; 0; 3; 0; 1300; 15; 9; 0.0166839; 0; 0; 0; -0.365674; -2.69119; -2.55; 
74;81;2019/06/21 14:44:35;451.316; 346.158; 7.69208; 451.316; 346.172; 0; 16; 1; -0.182939; -2.07133; -1.93977;-0.182868; -2.0705; -1.93903;-0.000821494; -0.0120865; -0.00610464;-0.024144; -0.208811; -0.313866;-1; -1; -1; -1; -1; 100; 0; 0; 0; 0; 0;0; 0; 0;0; 0; 0;0; 0; 0;1; -0.182868; -2.0705; -1.5; 0; 0; 0; -3.48229; -43.0435; -3.48229; 670; 228; 1024; 1024; 1024; 204; 1024; 1024; 1024; 0; 3; 0; 1300; 15; 9; 0.0166841; 0; 0; 0; -0.365735; -2.69165; -2.55; 
75;82;2019/06/21 14:44:35;451.316; 346.158; 7.6974; 451.316; 346.168; 0; 17; 1; -0.182813; -2.06989; -1.93843;-0.182851; -2.07032; -1.93885;-0.000764891; -0.0106892; -0.00621171;-0.0221253; -0.175662; -0.303017;-1; -1; -1; -1; -1; 100; 0; 0; 0; 0; 0;0; 0; 0;0; 0; 0;0; 0; 0;1; -0.182851; -2.07032; -1.5; 0; 0; 0; -3.48144; -43.0175; -3.48144; 670; 228; 1024; 1024; 1024; 204; 1024; 1024; 1024; 0; 3; 0; 1300; 15; 9; 0.0166839; 0; 0; 0; -0.365702; -2.69142; -2.55; 
76;83;2019/06/21 14:44:35;451.316; 346.158; 7.70898; 451.316; 346.165; 0; 18; 1; -0.182538; -2.06679; -1.93552;-0.182757; -2.06926; -1.93785;-0.000125072; -0.00288472; 4.70998e-05;-0.0150707; -0.0965489; -0.228119;-1; -1; -1; -1; -1; 100; 0; 0; 0; 0; 0;0; 0; 0;0; 0; 0;0; 0; 0;1; -0.182757; -2.06926; -1.5; 0; 0; 0; -3.47357; -42.8713; -3.47357; 670; 228; 1024; 1024; 1024; 204; 1024; 1024; 1024; 0; 3; 0; 1300; 15; 9; 0.0166831; 0; 0; 0; -0.365514; -2.69004; -2.55; 
77;84;2019/06/21 14:44:35;451.316; 346.158; 7.69491; 451.316; 346.163; 0; 19; 1; -0.182872; -2.07056; -1.93905;-0.182792; -2.06965; -1.93821;-0.000469522; -0.00637431; -0.00399072;-0.0121593; -0.0704633; -0.191216;-1; -1; -1; -1; -1; 100; 0; 0; 0; 0; 0;0; 0; 0;0; 0; 0;0; 0; 0;1; -0.182792; -2.06965; -1.5; 0; 0; 0; -3.4775; -42.935; -3.4775; 670; 228; 1024; 1024; 1024; 204; 1024; 1024; 1024; 0; 3; 0; 1300; 15; 9; 0.0166839; 0; 0; 0; -0.365583; -2.69055; -2.55; 
78;85;2019/06/21 14:44:35;451.316; 346.158; 7.68814; 451.316; 346.162; 0; 20; 1; -0.183033; -2.07239; -1.94076;-0.182864; -2.07047; -1.93898;-0.000869525; -0.0106039; -0.00851262;-0.010267; -0.0585919; -0.162466;-1; -1; -1; -1; -1; 100; 0; 0; 0; 0; 0;0; 0; 0;0; 0; 0;0; 0; 0;1; -0.182864; -2.07047; -1.5; 0; 0; 0; -3.48267; -43.0193; -3.48267; 670; 228; 1024; 1024; 1024; 204; 1024; 1024; 1024; 0; 3; 0; 1300; 15; 9; 0.0166841; 0; 0; 0; -0.365728; -2.69161; -2.55; 
79;86;2019/06/21 14:44:35;451.316; 346.158; 7.68985; 451.316; 346.161; 0; 21; 1; -0.182992; -2.07193; -1.94033;-0.182902; -2.07091; -1.93938;-0.000782577; -0.00940244; -0.00779229;-0.00781987; -0.040973; -0.127226;-1; -1; -1; -1; -1; 100; 0; 0; 0; 0; 0;0; 0; 0;0; 0; 0;0; 0; 0;1; -0.182902; -2.07091; -1.5; 0; 0; 0; -3.48258; -43.0092; -3.48258; 670; 228; 1024; 1024; 1024; 204; 1024; 1024; 1024; 0; 3; 0; 1300; 15; 9; 0.016683; 0; 0; 0; -0.365805; -2.69218; -2.55; 
80;87;2019/06/21 14:44:35;451.316; 346.158; 7.7156; 451.316; 346.16; 0; 22; 1; -0.182381; -2.06501; -1.93385;-0.182746; -2.06914; -1.93772;1.65113e-05; -0.000197719; 0.000536388;-0.00134332; 0.0229229; -0.0497984;-1; -1; -1; -1; -1; 100; 0; 0; 0; 0; 0;0; 0; 0;0; 0; 0;0; 0; 0;1; -0.182746; -2.06914; -1.5; 0; 0; 0; -3.47202; -42.8261; -3.47202; 670; 228; 1024; 1024; 1024; 204; 1024; 1024; 1024; 0; 3; 0; 1300; 15; 9; 0.0166839; 0; 0; 0; -0.365492; -2.68988; -2.55; 
81;88;2019/06/21 14:44:35;451.316; 346.158; 7.69508; 451.316; 346.159; 0; 23; 1; -0.182868; -2.07052; -1.93901;-0.182783; -2.06955; -1.93811;0.000284106; 0.00294335; 0.00326902;0.00338572; 0.0682284; 0.00800519;-1; -1; -1; -1; -1; 100; 0; 0; 0; 0; 0;0; 0; 0;0; 0; 0;0; 0; 0;1; -0.182783; -2.06955; -1.5; 0; 0; 0; -3.47017; -42.7846; -3.47017; 670; 228; 1024; 1024; 1024; 204; 1024; 1024; 1024; 0; 3; 0; 1300; 15; 9; 0.0166841; 0; 0; 0; -0.365565; -2.69042; -2.55; 
82;89;2019/06/21 14:44:35;451.316; 346.158; 7.71387; 451.316; 346.159; 0; 24; 1; -0.182422; -2.06547; -1.93429;-0.182674; -2.06833; -1.93696;0.000501168; 0.00548152; 0.0054959;0.00453382; 0.0743676; 0.0265759;-1; -1; -1; -1; -1; 100; 0; 0; 0; 0; 0;0; 0; 0;0; 0; 0;0; 0; 0;1; -0.182674; -2.06833; -1.5; 0; 0; 0; -3.46605; -42.7189; -3.46605; 670; 228; 1024; 1024; 1024; 204; 1024; 1024; 1024; 0; 3; 0; 1300; 15; 9; 0.0166839; 0; 0; 0; -0.365349; -2.68883; -2.55; 
83;90;2019/06/21 14:44:35;451.316; 346.158; 7.70841; 451.316; 346.159; 0; 25; 1; -0.182551; -2.06694; -1.93566;-0.182638; -2.06791; -1.93657;0.000916087; 0.010237; 0.00984213;0.00825707; 0.110998; 0.0712205;-1; -1; -1; -1; -1; 100; 0; 0; 0; 0; 0;0; 0; 0;0; 0; 0;0; 0; 0;1; -0.182638; -2.06791; -1.5; 0; 0; 0; -3.46141; -42.6345; -3.46141; 670; 228; 1024; 1024; 1024; 204; 1024; 1024; 1024; 0; 3; 0; 1300; 15; 9; 0.0166831; 0; 0; 0; -0.365275; -2.68829; -2.55; 
84;91;2019/06/21 14:44:35;451.316; 346.158; 7.70713; 451.316; 346.158; 0; 26; 1; -0.182582; -2.06728; -1.93598;-0.182621; -2.06772; -1.93639;0.00152105; 0.0171278; 0.0162192;0.0145068; 0.177413; 0.141559;-1; -1; -1; -1; -1; 100; 0; 0; 0; 0; 0;0; 0; 0;0; 0; 0;0; 0; 0;1; -0.182621; -2.06772; -1.5; 0; 0; 0; -3.45535; -42.5209; -3.45535; 670; 228; 1024; 1024; 1024; 204; 1024; 1024; 1024; 0; 3; 0; 1300; 15; 9; 0.0166839; 0; 0; 0; -0.365242; -2.68804; -2.55; 
85;92;2019/06/21 14:44:35;451.316; 346.158; 7.71496; 451.316; 346.158; 0; 27; 1; -0.182396; -2.06518; -1.93402;-0.182554; -2.06696; -1.93568;0.00230654; 0.0260504; 0.0245211;0.0210478; 0.248113; 0.214056;-1; -1; -1; -1; -1; 100; 0; 0; 0; 0; 0;0; 0; 0;0; 0; 0;0; 0; 0;1; -0.182554; -2.06696; -1.5; 0; 0; 0; -3.4466; -42.3631; -3.4466; 670; 228; 1024; 1024; 1024; 204; 1024; 1024; 1024; 0; 3; 0; 1300; 15; 9; 0.0166841; 0; 0; 0; -0.365107; -2.68705; -2.55; 
86;93;2019/06/21 14:44:35;451.152; 345.758; 7.67329; 451.316; 346.158; 0; 28; 1; -0.182319; -2.07421; -1.94593;-0.182483; -2.06914; -1.93876;0.00243475; 0.0156398; 0.0105846;0.0222918; 0.212153; 0.168586;-1; -1; -1; -1; -1; 100; 0; 0; 0; 0; 0;0; 0; 0;0; 0; 0;0; 0; 0;1; -0.182483; -2.06914; -1.5; 0; 0; 0; -3.44405; -42.5739; -3.44405; 670; 228; 1024; 1024; 1024; 204; 1024; 1024; 1024; 0; 3; 0; 1300; 15; 9; 0.016683; 0; 0; 0; -0.364966; -2.68988; -2.55; 
87;94;2019/06/21 14:44:35;450.667; 342.667; 7.3671; 451.148; 345.75; 0; 29; 1; -0.186612; -2.14285; -2.0382;-0.183722; -2.09125; -1.96859;-0.00229226; -0.0773235; -0.11544;0.00308011; -0.193449; -0.373203;-1; -1; -1; -1; -1; 100; 0; 0; 0; 0; 0;0; 0; 0;0; 0; 0;0; 0; 0;1; -0.183722; -2.09125; -1.5; 0; 0; 0; -3.51249; -44.5115; -3.51249; 670; 228; 1024; 1024; 1024; 204; 1024; 1024; 1024; 0; 3; 0; 1300; 15; 9; 0.0166839; 0; 0; 0; -0.367444; -2.71863; -2.55; 
88;95;2019/06/21 14:44:35;450.667; 342.667; 7.3671; 450.65; 342.59; 1; 0; 1; -0.186612; -2.14285; -2.0382;-0.183722; -2.09125; -1.96859;-0.00229226; -0.0773235; -0.11544;0.00308011; -0.193449; -0.373203;-1; -1; -1; -1; -1; 100; 0; 0; 0; 0; 0;0; 0; 0;0; 0; 0;0; 0; 0;1; -0.183722; -2.09125; -1.5; 0; 0; 0; -3.51249; -44.5115; -3.51249; 670; 228; 1024; 1024; 1024; 204; 1024; 1024; 1024; 0; 3; 0; 1300; 15; 9; 0.0166839; 0; 0; 0; -0.367444; -2.71863; -2.55; 
89;96;2019/06/21 14:44:35;450.667; 342.667; 7.3671; 450.634; 342.513; 2; 0; 1; -0.186612; -2.14285; -2.0382;-0.183722; -2.09125; -1.96859;-0.00229226; -0.0773235; -0.11544;0.00308011; -0.193449; -0.373203;-1; -1; -1; -1; -1; 100; 0; 0; 0; 0; 0;0; 0; 0;0; 0; 0;0; 0; 0;1; -0.183722; -2.09125; -1.5; 0; 0; 0; -3.51249; -44.5115; -3.51249; 670; 228; 1024; 1024; 1024; 204; 1024; 1024; 1024; 0; 3; 0; 1300; 15; 9; 0.0166839; 0; 0; 0; -0.367444; -2.71863; -2.55; 
90;97;2019/06/21 14:44:35;450.667; 342.667; 7.3671; 450.617; 342.437; 3; 0; 1; -0.186612; -2.14285; -2.0382;-0.183722; -2.09125; -1.96859;-0.00229226; -0.0773235; -0.11544;0.00308011; -0.193449; -0.373203;-1; -1; -1; -1; -1; 100; 0; 0; 0; 0; 0;0; 0; 0;0; 0; 0;0; 0; 0;1; -0.183722; -2.09125; -1.5; 0; 0; 0; -3.51249; -44.5115; -3.51249; 670; 228; 1024; 1024; 1024; 204; 1024; 1024; 1024; 0; 3; 0; 1300; 15; 9; 0.0166839; 0; 0; 0; -0.367444; -2.71863; -2.55; 
91;98;2019/06/21 14:44:35;450.667; 342.667; 7.3671; 450.601; 342.36; 4; 0; 1; -0.186612; -2.14285; -2.0382;-0.183722; -2.09125; -1.96859;-0.00229226; -0.0773235; -0.11544;0.00308011; -0.193449; -0.373203;-1; -1; -1; -1; -1; 100; 0; 0; 0; 0; 0;0; 0; 0;0; 0; 0;0; 0; 0;1; -0.183722; -2.09125; -1.5; 0; 0; 0; -3.51249; -44.5115; -3.51249; 670; 228; 1024; 1024; 1024; 204; 1024; 1024; 1024; 0; 3; 0; 1300; 15; 9; 0.0166839; 0; 0; 0; -0.367444; -2.71863; -2.55; 
92;99;2019/06/21 14:44:35;450.667; 342.667; 7.3671; 450.584; 342.284; 5; 0; 1; -0.186612; -2.14285; -2.0382;-0.183722; -2.09125; -1.96859;-0.00229226; -0.0773235; -0.11544;0.00308011; -0.193449; -0.373203;-1; -1; -1; -1; -1; 100; 0; 0; 0; 0; 0;0; 0; 0;0; 0; 0;0; 0; 0;1; -0.183722; -2.09125; -1.5; 0; 0; 0; -3.51249; -44.5115; -3.51249; 670; 228; 1024; 1024; 1024; 204; 1024; 1024; 1024; 0; 3; 0; 1300; 15; 9; 0.0166839; 0; 0; 0; -0.367444; -2.71863; -2.55; 
93;100;2019/06/21 14:44:35;450.667; 342.667; 7.3671; 450.568; 342.208; 6; 0; 1; -0.186612; -2.14285; -2.0382;-0.183722; -2.09125; -1.96859;-0.00229226; -0.0773235; -0.11544;0.00308011; -0.193449; -0.373203;-1; -1; -1; -1; -1; 100; 0; 0; 0; 0; 0;0; 0; 0;0; 0; 0;0; 0; 0;1; -0.183722; -2.09125; -1.5; 0; 0; 0; -3.51249; -44.5115; -3.51249; 670; 228; 1024; 1024; 1024; 204; 1024; 1024; 1024; 0; 3; 0; 1300; 15; 9; 0.0166839; 0; 0; 0; -0.367444; -2.71863; -2.55; 
94;101;2019/06/21 14:44:35;450.667; 342.667; 7.3671; 450.551; 342.132; 7; 0; 1; -0.186612; -2.14285; -2.0382;-0.183722; -2.09125; -1.96859;-0.00229226; -0.0773235; -0.11544;0.00308011; -0.193449; -0.373203;-1; -1; -1; -1; -1; 100; 0; 0; 0; 0; 0;0; 0; 0;0; 0; 0;0; 0; 0;1; -0.183722; -2.09125; -1.5; 0; 0; 0; -3.51249; -44.5115; -3.51249; 670; 228; 1024; 1024; 1024; 204; 1024; 1024; 1024; 0; 3; 0; 1300; 15; 9; 0.0166839; 0; 0; 0; -0.367444; -2.71863; -2.55; 
95;102;2019/06/21 14:44:35;450.667; 342.667; 7.3671; 450.535; 342.056; 8; 0; 1; -0.186612; -2.14285; -2.0382;-0.183722; -2.09125; -1.96859;-0.00229226; -0.0773235; -0.11544;0.00308011; -0.193449; -0.373203;-1; -1; -1; -1; -1; 100; 0; 0; 0; 0; 0;0; 0; 0;0; 0; 0;0; 0; 0;1; -0.183722; -2.09125; -1.5; 0; 0; 0; -3.51249; -44.5115; -3.51249; 670; 228; 1024; 1024; 1024; 204; 1024; 1024; 1024; 0; 3; 0; 1300; 15; 9; 0.0166839; 0; 0; 0; -0.367444; -2.71863; -2.55; 
96;103;2019/06/21 14:44:35;450.667; 342.667; 7.3671; 450.519; 341.98; 9; 0; 1; -0.186612; -2.14285; -2.0382;-0.183722; -2.09125; -1.96859;-0.00229226; -0.0773235; -0.11544;0.00308011; -0.193449; -0.373203;-1; -1; -1; -1; -1; 100; 0; 0; 0; 0; 0;0; 0; 0;0; 0; 0;0; 0; 0;1; -0.183722; -2.09125; -1.5; 0; 0; 0; -3.51249; -44.5115; -3.51249; 670; 228; 1024; 1024; 1024; 204; 1024; 1024; 1024; 0; 3; 0; 1300; 15; 9; 0.0166839; 0; 0; 0; -0.367444; -2.71863; -2.55; 
97;104;2019/06/21 14:44:35;450.667; 342.667; 7.3671; 450.502; 341.904; 10; 0; 0; 0; 0; 0;0; 0; 0;0; 0; 0;0; 0; 0;-1; -1; -1; -1; -1; 100; 0; 0; 0; 0; 0;0; 0; 0;0; 0; 0;0; 0; 0;0; 0; 0; 0; 0; 0; 0; 0; 0; 0; 670; 228; 1024; 1024; 1024; 204; 1024; 1024; 1024; 0; 3; 0; 1300; 15; 9; 0; 0; 0; 0; 0; 0; 0; 
98;105;2019/06/21 14:44:35;450.667; 342.667; 7.3671; 450.502; 341.904; 11; 0; 0; 0; 0; 0;0; 0; 0;0; 0; 0;0; 0; 0;-1; -1; -1; -1; -1; 100; 0; 0; 0; 0; 0;0; 0; 0;0; 0; 0;0; 0; 0;0; 0; 0; 0; 0; 0; 0; 0; 0; 0; 670; 228; 1024; 1024; 1024; 204; 1024; 1024; 1024; 0; 3; 0; 1300; 15; 9; 0; 0; 0; 0; 0; 0; 0; 
99;106;2019/06/21 14:44:35;450.667; 342.667; 7.3671; 450.502; 341.904; 12; 0; 0; 0; 0; 0;0; 0; 0;0; 0; 0;0; 0; 0;-1; -1; -1; -1; -1; 100; 0; 0; 0; 0; 0;0; 0; 0;0; 0; 0;0; 0; 0;0; 0; 0; 0; 0; 0; 0; 0; 0; 0; 670; 228; 1024; 1024; 1024; 204; 1024; 1024; 1024; 0; 3; 0; 1300; 15; 9; 0; 0; 0; 0; 0; 0; 0; 
100;107;2019/06/21 14:44:35;450.667; 342.667; 7.3671; 450.502; 341.904; 13; 0; 0; 0; 0; 0;0; 0; 0;0; 0; 0;0; 0; 0;-1; -1; -1; -1; -1; 100; 0; 0; 0; 0; 0;0; 0; 0;0; 0; 0;0; 0; 0;0; 0; 0; 0; 0; 0; 0; 0; 0; 0; 670; 228; 1024; 1024; 1024; 204; 1024; 1024; 1024; 0; 3; 0; 1300; 15; 9; 0; 0; 0; 0; 0; 0; 0; 
101;108;2019/06/21 14:44:35;450.667; 342.667; 7.3671; 450.502; 341.904; 14; 0; 0; 0; 0; 0;0; 0; 0;0; 0; 0;0; 0; 0;-1; -1; -1; -1; -1; 100; 0; 0; 0; 0; 0;0; 0; 0;0; 0; 0;0; 0; 0;0; 0; 0; 0; 0; 0; 0; 0; 0; 0; 670; 228; 1024; 1024; 1024; 204; 1024; 1024; 1024; 0; 3; 0; 1300; 15; 9; 0; 0; 0; 0; 0; 0; 0; 
102;109;2019/06/21 14:44:35;450.667; 342.667; 7.3671; 450.502; 341.904; 15; 0; 0; 0; 0; 0;0; 0; 0;0; 0; 0;0; 0; 0;-1; -1; -1; -1; -1; 100; 0; 0; 0; 0; 0;0; 0; 0;0; 0; 0;0; 0; 0;0; 0; 0; 0; 0; 0; 0; 0; 0; 0; 670; 228; 1024; 1024; 1024; 204; 1024; 1024; 1024; 0; 3; 0; 1300; 15; 9; 0; 0; 0; 0; 0; 0; 0; 
103;110;2019/06/21 14:44:35;450.667; 342.667; 7.3671; 450.502; 341.904; 16; 0; 0; 0; 0; 0;0; 0; 0;0; 0; 0;0; 0; 0;-1; -1; -1; -1; -1; 100; 0; 0; 0; 0; 0;0; 0; 0;0; 0; 0;0; 0; 0;0; 0; 0; 0; 0; 0; 0; 0; 0; 0; 670; 228; 1024; 1024; 1024; 204; 1024; 1024; 1024; 0; 3; 0; 1300; 15; 9; 0; 0; 0; 0; 0; 0; 0; 
104;111;2019/06/21 14:44:35;450.667; 342.667; 7.3671; 450.502; 341.904; 17; 0; 0; 0; 0; 0;0; 0; 0;0; 0; 0;0; 0; 0;-1; -1; -1; -1; -1; 100; 0; 0; 0; 0; 0;0; 0; 0;0; 0; 0;0; 0; 0;0; 0; 0; 0; 0; 0; 0; 0; 0; 0; 670; 228; 1024; 1024; 1024; 204; 1024; 1024; 1024; 0; 3; 0; 1300; 15; 9; 0; 0; 0; 0; 0; 0; 0; 
105;112;2019/06/21 14:44:35;450.667; 342.667; 7.3671; 450.502; 341.904; 18; 0; 0; 0; 0; 0;0; 0; 0;0; 0; 0;0; 0; 0;-1; -1; -1; -1; -1; 100; 0; 0; 0; 0; 0;0; 0; 0;0; 0; 0;0; 0; 0;0; 0; 0; 0; 0; 0; 0; 0; 0; 0; 670; 228; 1024; 1024; 1024; 204; 1024; 1024; 1024; 0; 3; 0; 1300; 15; 9; 0; 0; 0; 0; 0; 0; 0; 
106;113;2019/06/21 14:44:35;450.667; 342.667; 7.3671; 450.502; 341.904; 19; 0; 0; 0; 0; 0;0; 0; 0;0; 0; 0;0; 0; 0;-1; -1; -1; -1; -1; 100; 0; 0; 0; 0; 0;0; 0; 0;0; 0; 0;0; 0; 0;0; 0; 0; 0; 0; 0; 0; 0; 0; 0; 670; 228; 1024; 1024; 1024; 204; 1024; 1024; 1024; 0; 3; 0; 1300; 15; 9; 0; 0; 0; 0; 0; 0; 0; 
107;114;2019/06/21 14:44:35;450.667; 342.667; 7.3671; 450.502; 341.904; 20; 0; 0; 0; 0; 0;0; 0; 0;0; 0; 0;0; 0; 0;-1; -1; -1; -1; -1; 100; 0; 0; 0; 0; 0;0; 0; 0;0; 0; 0;0; 0; 0;0; 0; 0; 0; 0; 0; 0; 0; 0; 0; 670; 228; 1024; 1024; 1024; 204; 1024; 1024; 1024; 0; 3; 0; 1300; 15; 9; 0; 0; 0; 0; 0; 0; 0; 
108;115;2019/06/21 14:44:35;450.667; 342.667; 7.3671; 450.502; 341.904; 21; 0; 0; 0; 0; 0;0; 0; 0;0; 0; 0;0; 0; 0;-1; -1; -1; -1; -1; 100; 0; 0; 0; 0; 0;0; 0; 0;0; 0; 0;0; 0; 0;0; 0; 0; 0; 0; 0; 0; 0; 0; 0; 670; 228; 1024; 1024; 1024; 204; 1024; 1024; 1024; 0; 3; 0; 1300; 15; 9; 0; 0; 0; 0; 0; 0; 0; 
109;116;2019/06/21 14:44:35;450.667; 342.667; 7.3671; 450.502; 341.904; 22; 0; 0; 0; 0; 0;0; 0; 0;0; 0; 0;0; 0; 0;-1; -1; -1; -1; -1; 100; 0; 0; 0; 0; 0;0; 0; 0;0; 0; 0;0; 0; 0;0; 0; 0; 0; 0; 0; 0; 0; 0; 0; 670; 228; 1024; 1024; 1024; 204; 1024; 1024; 1024; 0; 3; 0; 1300; 15; 9; 0; 0; 0; 0; 0; 0; 0; 
110;117;2019/06/21 14:44:35;450.667; 342.667; 7.3671; 450.502; 341.904; 23; 0; 0; 0; 0; 0;0; 0; 0;0; 0; 0;0; 0; 0;-1; -1; -1; -1; -1; 100; 0; 0; 0; 0; 0;0; 0; 0;0; 0; 0;0; 0; 0;0; 0; 0; 0; 0; 0; 0; 0; 0; 0; 670; 228; 1024; 1024; 1024; 204; 1024; 1024; 1024; 0; 3; 0; 1300; 15; 9; 0; 0; 0; 0; 0; 0; 0; 
111;118;2019/06/21 14:44:35;450.667; 342.667; 7.3671; 450.502; 341.904; 24; 0; 0; 0; 0; 0;0; 0; 0;0; 0; 0;0; 0; 0;-1; -1; -1; -1; -1; 100; 0; 0; 0; 0; 0;0; 0; 0;0; 0; 0;0; 0; 0;0; 0; 0; 0; 0; 0; 0; 0; 0; 0; 670; 228; 1024; 1024; 1024; 204; 1024; 1024; 1024; 0; 3; 0; 1300; 15; 9; 0; 0; 0; 0; 0; 0; 0; 
112;119;2019/06/21 14:44:36;450.667; 342.667; 7.3671; 450.502; 341.904; 25; 0; 0; 0; 0; 0;0; 0; 0;0; 0; 0;0; 0; 0;-1; -1; -1; -1; -1; 100; 0; 0; 0; 0; 0;0; 0; 0;0; 0; 0;0; 0; 0;0; 0; 0; 0; 0; 0; 0; 0; 0; 0; 670; 228; 1024; 1024; 1024; 204; 1024; 1024; 1024; 0; 3; 0; 1300; 15; 9; 0; 0; 0; 0; 0; 0; 0; 
113;120;2019/06/21 14:44:36;451; 343; 7.60292; 450.502; 341.904; 0; 1; 1; -0.183012; -2.07822; -1.97379;-0.183012; -2.07822; -1.97379;0; 0; 0;0; 0; 0;-1; -1; -1; -1; -1; 100; 0; 0; 0; 0; 0;0; 0; 0;0; 0; 0;0; 0; 0;1; -0.183012; -2.07822; -1.5; 0; 0; 0; -3.47722; -43.0109; -3.47722; 670; 228; 1024; 1024; 1024; 204; 1024; 1024; 1024; 0; 3; 0; 1300; 15; 9; 0.433777; 0; 0; 0; -0.366023; -2.70169; -2.55; 
114;121;2019/06/21 14:44:36;451.316; 346.158; 7.70806; 451; 343; 0; 2; 1; -0.18256; -2.06703; -1.93575;-0.182876; -2.07487; -1.96238;0; 0; 0;0; 0; 0;-1; -1; -1; -1; -1; 100; 0; 0; 0; 0; 0;0; 0; 0;0; 0; 0;0; 0; 0;1; -0.182876; -2.07487; -1.5; 0; 0; 0; -3.47465; -42.9414; -3.47465; 670; 228; 1024; 1024; 1024; 204; 1024; 1024; 1024; 0; 3; 0; 1300; 15; 9; 0.0166841; 0; 0; 0; -0.365752; -2.69733; -2.55; 
115;122;2019/06/21 14:44:36;451.316; 346.158; 7.69572; 451.316; 346.158; 0; 3; 1; -0.182852; -2.07035; -1.93885;-0.182869; -2.07351; -1.95532;0; 0; 0;0; 0; 0;-1; -1; -1; -1; -1; 100; 0; 0; 0; 0; 0;0; 0; 0;0; 0; 0;0; 0; 0;1; -0.182869; -2.07351; -1.5; 0; 0; 0; -3.47451; -42.9134; -3.47451; 670; 228; 1024; 1024; 1024; 204; 1024; 1024; 1024; 0; 3; 0; 1300; 15; 9; 0.0166829; 0; 0; 0; -0.365738; -2.69556; -2.55; 
116;123;2019/06/21 14:44:36;451.316; 346.158; 7.70431; 451.316; 346.158; 0; 4; 1; -0.182648; -2.06804; -1.93669;-0.182803; -2.07187; -1.94973;0; 0; 0;0; 0; 0;-1; -1; -1; -1; -1; 100; 0; 0; 0; 0; 0;0; 0; 0;0; 0; 0;0; 0; 0;1; -0.182803; -2.07187; -1.5; 0; 0; 0; -3.47325; -42.8794; -3.47325; 670; 228; 1024; 1024; 1024; 204; 1024; 1024; 1024; 0; 3; 0; 1300; 15; 9; 0.0166841; 0; 0; 0; -0.365606; -2.69343; -2.55; 
117;124;2019/06/21 14:44:36;451.316; 346.158; 7.69124; 451.316; 346.158; 0; 5; 1; -0.182959; -2.07155; -1.93998;-0.18285; -2.07177; -1.9468;0; 0; 0;0; 0; 0;-1; -1; -1; -1; -1; 100; 0; 0; 0; 0; 0;0; 0; 0;0; 0; 0;0; 0; 0;1; -0.18285; -2.07177; -1.5; 0; 0; 0; -3.47414; -42.8774; -3.47414; 670; 228; 1024; 1024; 1024; 204; 1024; 1024; 1024; 0; 3; 0; 1300; 15; 9; 0.0166841; 0; 0; 0; -0.365699; -2.69331; -2.55; 
118;125;2019/06/21 14:44:36;451.316; 346.158; 7.70246; 451.316; 346.158; 0; 6; 1; -0.182692; -2.06853; -1.93715;-0.182802; -2.0708; -1.94391;0; 0; 0;0; 0; 0;-1; -1; -1; -1; -1; 100; 0; 0; 0; 0; 0;0; 0; 0;0; 0; 0;0; 0; 0;1; -0.182802; -2.0708; -1.5; 0; 0; 0; -3.47325; -42.8573; -3.47325; 670; 228; 1024; 1024; 1024; 204; 1024; 1024; 1024; 0; 3; 0; 1300; 15; 9; 0.0166838; 0; 0; 0; -0.365605; -2.69204; -2.55; 
119;126;2019/06/21 14:44:36;451.316; 346.158; 7.6827; 451.316; 346.158; 0; 7; 1; -0.183162; -2.07386; -1.94214;-0.18291; -2.07172; -1.94338;0; 0; 0;0; 0; 0;-1; -1; -1; -1; -1; 100; 0; 0; 0; 0; 0;0; 0; 0;0; 0; 0;0; 0; 0;1; -0.18291; -2.07172; -1.5; 0; 0; 0; -3.4753; -42.8763; -3.4753; 670; 228; 1024; 1024; 1024; 204; 1024; 1024; 1024; 0; 3; 0; 1300; 15; 9; 0.0166831; 0; 0; 0; -0.365821; -2.69323; -2.55; 
120;127;2019/06/21 14:44:36;451.316; 346.158; 7.70009; 451.316; 346.158; 0; 8; 1; -0.182749; -2.06917; -1.93775;-0.182862; -2.07095; -1.94169;0.000662873; 0.0546275; 0.264939;0.00264879; 0.218288; 1.05868;-1; -1; -1; -1; -1; 100; 0; 0; 0; 0; 0;0; 0; 0;0; 0; 0;0; 0; 0;1; -0.182862; -2.07095; -1.5; 0; 0; 0; -3.46808; -41.9908; -3.46808; 670; 228; 1024; 1024; 1024; 204; 1024; 1024; 1024; 0; 3; 0; 1300; 15; 9; 0.0166841; 0; 0; 0; -0.365724; -2.69224; -2.55; 
121;128;2019/06/21 14:44:36;451.316; 346.158; 7.71571; 451.357; 346.572; 0; 9; 1; -0.182379; -2.06498; -1.93383;-0.182717; -2.06916; -1.93933;0.00100524; 0.0501508; 0.222848;0.00560612; 0.33137; 1.52568;-1; -1; -1; -1; -1; 100; 0; 0; 0; 0; 0;0; 0; 0;0; 0; 0;0; 0; 0;1; -0.182717; -2.06916; -1.5; 0; 0; 0; -3.46207; -42.025; -3.46207; 670; 228; 1024; 1024; 1024; 204; 1024; 1024; 1024; 0; 3; 0; 1300; 15; 9; 0.0166838; 0; 0; 0; -0.365434; -2.68991; -2.55; 
122;129;2019/06/21 14:44:36;451.316; 346.158; 7.72378; 451.35; 346.499; 0; 10; 1; -0.182188; -2.06282; -1.93181;-0.182558; -2.06726; -1.93707;0.00158031; 0.0485013; 0.184281;0.00967843; 0.392627; 1.65178;-1; -1; -1; -1; -1; 100; 0; 0; 0; 0; 0;0; 0; 0;0; 0; 0;0; 0; 0;1; -0.182558; -2.06726; -1.5; 0; 0; 0; -3.45359; -42.0119; -3.45359; 670; 228; 1024; 1024; 1024; 204; 1024; 1024; 1024; 0; 3; 0; 1300; 15; 9; 0.0166841; 0; 0; 0; -0.365117; -2.68744; -2.55; 
123;130;2019/06/21 14:44:36;451.316; 346.158; 7.70285; 451.343; 346.428; 0; 11; 1; -0.182683; -2.06843; -1.93706;-0.182596; -2.06761; -1.93707;0.00196282; 0.0457321; 0.149475;0.0136503; 0.418319; 1.58836;-1; -1; -1; -1; -1; 100; 0; 0; 0; 0; 0;0; 0; 0;0; 0; 0;0; 0; 0;1; -0.182596; -2.06761; -1.5; 0; 0; 0; -3.45067; -42.0632; -3.45067; 670; 228; 1024; 1024; 1024; 204; 1024; 1024; 1024; 0; 3; 0; 1300; 15; 9; 0.0166831; 0; 0; 0; -0.365191; -2.6879; -2.55; 
124;131;2019/06/21 14:44:36;451.316; 346.158; 7.69814; 451.336; 346.364; 0; 12; 1; -0.182795; -2.06969; -1.93824;-0.182655; -2.06824; -1.93742;0.00176497; 0.0376884; 0.115614;0.0152429; 0.401591; 1.415;-1; -1; -1; -1; -1; 100; 0; 0; 0; 0; 0;0; 0; 0;0; 0; 0;0; 0; 0;1; -0.182655; -2.06824; -1.5; 0; 0; 0; -3.45369; -42.2042; -3.45369; 670; 228; 1024; 1024; 1024; 204; 1024; 1024; 1024; 0; 3; 0; 1300; 15; 9; 0.0166841; 0; 0; 0; -0.365311; -2.68871; -2.55; 
125;132;2019/06/21 14:44:36;451.316; 346.158; 7.70859; 451.331; 346.313; 0; 13; 1; -0.182547; -2.06689; -1.93561;-0.182623; -2.06783; -1.93688;0.00220746; 0.0381372; 0.0953381;0.0179665; 0.393347; 1.22996;-1; -1; -1; -1; -1; 100; 0; 0; 0; 0; 0;0; 0; 0;0; 0; 0;0; 0; 0;1; -0.182623; -2.06783; -1.5; 0; 0; 0; -3.44887; -42.1887; -3.44887; 670; 228; 1024; 1024; 1024; 204; 1024; 1024; 1024; 0; 3; 0; 1300; 15; 9; 0.0166838; 0; 0; 0; -0.365246; -2.68818; -2.55; 
126;133;2019/06/21 14:44:36;451.316; 346.158; 7.65632; 451.327; 346.273; 0; 14; 1; -0.183794; -2.081; -1.94883;-0.182974; -2.07178; -1.94046;0.000875869; 0.0195679; 0.0621003;0.011631; 0.0959122; -0.0725514;-1; -1; -1; -1; -1; 100; 0; 0; 0; 0; 0;0; 0; 0;0; 0; 0;0; 0; 0;1; -0.182974; -2.07178; -1.5; 0; 0; 0; -3.46819; -42.5661; -3.46819; 670; 228; 1024; 1024; 1024; 204; 1024; 1024; 1024; 0; 3; 0; 1300; 15; 9; 0.0166831; 0; 0; 0; -0.365948; -2.69332; -2.55; 
127;134;2019/06/21 14:44:36;451.316; 346.158; 7.68253; 451.324; 346.242; 0; 15; 1; -0.183166; -2.0739; -1.94218;-0.183032; -2.07242; -1.94098;-0.000732758; -0.00127126; 0.030676;3.36841e-05; -0.147931; -0.811436;-1; -1; -1; -1; -1; 100; 0; 0; 0; 0; 0;0; 0; 0;0; 0; 0;0; 0; 0;1; -0.183032; -2.07242; -1.5; 0; 0; 0; -3.48457; -42.911; -3.48457; 670; 228; 1024; 1024; 1024; 204; 1024; 1024; 1024; 0; 3; 0; 1300; 15; 9; 0.0166841; 0; 0; 0; -0.366064; -2.69414; -2.55; 
128;135;2019/06/21 14:44:36;451.316; 346.158; 7.69472; 451.322; 346.219; 0; 16; 1; -0.182876; -2.07062; -1.9391;-0.182985; -2.07188; -1.94042;-0.00214547; -0.0192119; 0.00504873;-0.0148677; -0.359335; -1.20306;-1; -1; -1; -1; -1; 100; 0; 0; 0; 0; 0;0; 0; 0;0; 0; 0;0; 0; 0;1; -0.182985; -2.07188; -1.5; 0; 0; 0; -3.4971; -43.1854; -3.4971; 670; 228; 1024; 1024; 1024; 204; 1024; 1024; 1024; 0; 3; 0; 1300; 15; 9; 0.0166838; 0; 0; 0; -0.36597; -2.69344; -2.55; 
129;136;2019/06/21 14:44:36;451.316; 346.158; 7.67514; 451.32; 346.202; 0; 17; 1; -0.183343; -2.0759; -1.94405;-0.183092; -2.07308; -1.94151;-0.00327216; -0.0333953; -0.0147052;-0.029839; -0.531785; -1.37788;-1; -1; -1; -1; -1; 100; 0; 0; 0; 0; 0;0; 0; 0;0; 0; 0;0; 0; 0;1; -0.183092; -2.07308; -1.5; 0; 0; 0; -3.50984; -43.4362; -3.50984; 670; 228; 1024; 1024; 1024; 204; 1024; 1024; 1024; 0; 3; 0; 1300; 15; 9; 0.0166841; 0; 0; 0; -0.366185; -2.69501; -2.55; 
130;137;2019/06/21 14:44:36;451.316; 346.158; 7.6948; 451.319; 346.19; 0; 18; 1; -0.182874; -2.0706; -1.93908;-0.183027; -2.07234; -1.94078;-0.00344797; -0.0364236; -0.0222476;-0.0387339; -0.615218; -1.37761;-1; -1; -1; -1; -1; 100; 0; 0; 0; 0; 0;0; 0; 0;0; 0; 0;0; 0; 0;1; -0.183027; -2.07234; -1.5; 0; 0; 0; -3.51027; -43.469; -3.51027; 670; 228; 1024; 1024; 1024; 204; 1024; 1024; 1024; 0; 3; 0; 1300; 15; 9; 0.0166831; 0; 0; 0; -0.366054; -2.69404; -2.55; 
131;138;2019/06/21 14:44:36;451.316; 346.158; 7.67024; 451.318; 346.181; 0; 19; 1; -0.18346; -2.07722; -1.94529;-0.183157; -2.0738; -1.94213;-0.00420205; -0.0457117; -0.0343456;-0.0488522; -0.704184; -1.34477;-1; -1; -1; -1; -1; 100; 0; 0; 0; 0; 0;0; 0; 0;0; 0; 0;0; 0; 0;1; -0.183157; -2.0738; -1.5; 0; 0; 0; -3.5199; -43.6472; -3.5199; 670; 228; 1024; 1024; 1024; 204; 1024; 1024; 1024; 0; 3; 0; 1300; 15; 9; 0.0166841; 0; 0; 0; -0.366314; -2.69594; -2.55; 
132;139;2019/06/21 14:44:36;451.316; 346.158; 7.72518; 451.317; 346.174; 0; 20; 1; -0.182155; -2.06245; -1.93146;-0.182856; -2.0704; -1.93893;-0.00205066; -0.0218919; -0.0144811;-0.0410054; -0.588179; -1.11288;-1; -1; -1; -1; -1; 100; 0; 0; 0; 0; 0;0; 0; 0;0; 0; 0;0; 0; 0;1; -0.182856; -2.0704; -1.5; 0; 0; 0; -3.49375; -43.1975; -3.49375; 670; 228; 1024; 1024; 1024; 204; 1024; 1024; 1024; 0; 3; 0; 1300; 15; 9; 0.0166838; 0; 0; 0; -0.365713; -2.69152; -2.55; 
133;140;2019/06/21 14:44:36;451.316; 346.158; 7.69901; 451.317; 346.17; 0; 21; 1; -0.182774; -2.06946; -1.93802;-0.182832; -2.07012; -1.93866;-0.000431206; -0.00394068; 0.000580112;-0.0233983; -0.363574; -0.787985;-1; -1; -1; -1; -1; 100; 0; 0; 0; 0; 0;0; 0; 0;0; 0; 0;0; 0; 0;1; -0.182832; -2.07012; -1.5; 0; 0; 0; -3.4779; -42.9059; -3.4779; 670; 228; 1024; 1024; 1024; 204; 1024; 1024; 1024; 0; 3; 0; 1300; 15; 9; 0.0166841; 0; 0; 0; -0.365664; -2.69115; -2.55; 
134;141;2019/06/21 14:44:36;451.316; 346.158; 7.70752; 451.317; 346.166; 0; 22; 1; -0.182573; -2.06718; -1.93588;-0.182754; -2.06924; -1.93783;0.00066486; 0.00819342; 0.0106973;-0.00280913; -0.108635; -0.45022;-1; -1; -1; -1; -1; 100; 0; 0; 0; 0; 0;0; 0; 0;0; 0; 0;0; 0; 0;1; -0.182754; -2.06924; -1.5; 0; 0; 0; -3.46601; -42.6945; -3.46601; 670; 228; 1024; 1024; 1024; 204; 1024; 1024; 1024; 0; 3; 0; 1300; 15; 9; 0.0166831; 0; 0; 0; -0.365508; -2.69001; -2.55; 
135;142;2019/06/21 14:44:36;451.316; 346.158; 7.69052; 451.316; 346.164; 0; 23; 1; -0.182976; -2.07175; -1.94016;-0.182821; -2.06999; -1.93853;0.00148512; 0.017285; 0.0183248;0.0173243; 0.137333; -0.138147;-1; -1; -1; -1; -1; 100; 0; 0; 0; 0; 0;0; 0; 0;0; 0; 0;0; 0; 0;1; -0.182821; -2.06999; -1.5; 0; 0; 0; -3.45948; -42.5653; -3.45948; 670; 228; 1024; 1024; 1024; 204; 1024; 1024; 1024; 0; 3; 0; 1300; 15; 9; 0.0166838; 0; 0; 0; -0.365641; -2.69099; -2.55; 
136;143;2019/06/21 14:44:36;451.316; 346.158; 7.68944; 451.316; 346.162; 0; 24; 1; -0.183002; -2.07204; -1.94043;-0.182875; -2.0706; -1.9391;0.00149865; 0.0172999; 0.0177104;0.0301607; 0.297073; 0.0767797;-1; -1; -1; -1; -1; 100; 0; 0; 0; 0; 0;0; 0; 0;0; 0; 0;0; 0; 0;1; -0.182875; -2.0706; -1.5; 0; 0; 0; -3.46039; -42.5778; -3.46039; 670; 228; 1024; 1024; 1024; 204; 1024; 1024; 1024; 0; 3; 0; 1300; 15; 9; 0.0166841; 0; 0; 0; -0.36575; -2.69178; -2.55; 
137;144;2019/06/21 14:44:36;451.316; 346.158; 7.71335; 451.316; 346.161; 0; 25; 1; -0.182434; -2.06561; -1.93442;-0.182743; -2.06911; -1.93769;0.00255374; 0.0291482; 0.0283613;0.0450921; 0.477379; 0.29664;-1; -1; -1; -1; -1; 100; 0; 0; 0; 0; 0;0; 0; 0;0; 0; 0;0; 0; 0;1; -0.182743; -2.06911; -1.5; 0; 0; 0; -3.44785; -42.3582; -3.44785; 670; 228; 1024; 1024; 1024; 204; 1024; 1024; 1024; 0; 3; 0; 1300; 15; 9; 0.0166831; 0; 0; 0; -0.365486; -2.68984; -2.55; 
138;145;2019/06/21 14:44:36;451.316; 346.158; 7.68116; 451.316; 346.16; 0; 26; 1; -0.183199; -2.07427; -1.94252;-0.18288; -2.07066; -1.93914;0.0014393; 0.016461; 0.0161646;0.0410008; 0.439682; 0.300442;-1; -1; -1; -1; -1; 100; 0; 0; 0; 0; 0;0; 0; 0;0; 0; 0;0; 0; 0;1; -0.18288; -2.07066; -1.5; 0; 0; 0; -3.46104; -42.5922; -3.46104; 670; 228; 1024; 1024; 1024; 204; 1024; 1024; 1024; 0; 3; 0; 1300; 15; 9; 0.0166841; 0; 0; 0; -0.365759; -2.69185; -2.55; 
139;146;2019/06/21 14:44:36;451.316; 346.158; 7.68245; 451.316; 346.159; 0; 27; 1; -0.183168; -2.07392; -1.9422;-0.182966; -2.07164; -1.94006;0.000326193; 0.00381072; 0.00409495;0.027627; 0.294783; 0.19431;-1; -1; -1; -1; -1; 100; 0; 0; 0; 0; 0;0; 0; 0;0; 0; 0;0; 0; 0;1; -0.182966; -2.07164; -1.5; 0; 0; 0; -3.47326; -42.8139; -3.47326; 670; 228; 1024; 1024; 1024; 204; 1024; 1024; 1024; 0; 3; 0; 1300; 15; 9; 0.0166838; 0; 0; 0; -0.365933; -2.69313; -2.55; 
140;147;2019/06/21 14:44:36;451; 343; 7.616; 451.316; 346.159; 0; 28; 1; -0.182697; -2.07466; -1.9704;-0.182886; -2.07254; -1.94916;-0.000330052; -0.0109227; -0.0428427;0.0126006; 0.100484; -0.0973536;-1; -1; -1; -1; -1; 100; 0; 0; 0; 0; 0;0; 0; 0;0; 0; 0;0; 0; 0;1; -0.182886; -2.07254; -1.5; 0; 0; 0; -3.47796; -43.0672; -3.47796; 670; 228; 1024; 1024; 1024; 204; 1024; 1024; 1024; 0; 3; 0; 1300; 15; 9; 0.0166841; 0; 0; 0; -0.365771; -2.6943; -2.55; 
141;148;2019/06/21 14:44:36;450; 342; 7.63506; 450.994; 342.938; 0; 29; 1; -0.175706; -2.06399; -1.96904;-0.180732; -2.06998; -1.95512;0.00814947; -0.00650501; -0.0920293;0.0341906; -0.0347724; -0.499378;-1; -1; -1; -1; -1; 100; 0; 0; 0; 0; 0;0; 0; 0;0; 0; 0;0; 0; 0;1; -0.180732; -2.06998; -1.5; 0; 0; 0; -3.35648; -42.9438; -3.35648; 670; 228; 1024; 1024; 1024; 204; 1024; 1024; 1024; 0; 3; 0; 1300; 15; 9; 0.0166831; 0; 0; 0; -0.361463; -2.69097; -2.55; 
142;149;2019/06/21 14:44:36;450; 342; 7.63506; 449.966; 341.837; 1; 0; 1; -0.175706; -2.06399; -1.96904;-0.180732; -2.06998; -1.95512;0.00814947; -0.00650501; -0.0920293;0.0341906; -0.0347724; -0.499378;-1; -1; -1; -1; -1; 100; 0; 0; 0; 0; 0;0; 0; 0;0; 0; 0;0; 0; 0;1; -0.180732; -2.06998; -1.5; 0; 0; 0; -3.35648; -42.9438; -3.35648; 670; 228; 1024; 1024; 1024; 204; 1024; 1024; 1024; 0; 3; 0; 1300; 15; 9; 0.0166831; 0; 0; 0; -0.361463; -2.69097; -2.55; 
143;150;2019/06/21 14:44:36;450; 342; 7.63506; 449.932; 341.675; 2; 0; 1; -0.175706; -2.06399; -1.96904;-0.180732; -2.06998; -1.95512;0.00814947; -0.00650501; -0.0920293;0.0341906; -0.0347724; -0.499378;-1; -1; -1; -1; -1; 100; 0; 0; 0; 0; 0;0; 0; 0;0; 0; 0;0; 0; 0;1; -0.180732; -2.06998; -1.5; 0; 0; 0; -3.35648; -42.9438; -3.35648; 670; 228; 1024; 1024; 1024; 204; 1024; 1024; 1024; 0; 3; 0; 1300; 15; 9; 0.0166831; 0; 0; 0; -0.361463; -2.69097; -2.55; 
144;151;2019/06/21 14:44:36;450; 342; 7.63506; 449.899; 341.512; 3; 0; 1; -0.175706; -2.06399; -1.96904;-0.180732; -2.06998; -1.95512;0.00814947; -0.00650501; -0.0920293;0.0341906; -0.0347724; -0.499378;-1; -1; -1; -1; -1; 100; 0; 0; 0; 0; 0;0; 0; 0;0; 0; 0;0; 0; 0;1; -0.180732; -2.06998; -1.5; 0; 0; 0; -3.35648; -42.9438; -3.35648; 670; 228; 1024; 1024; 1024; 204; 1024; 1024; 1024; 0; 3; 0; 1300; 15; 9; 0.0166831; 0; 0; 0; -0.361463; -2.69097; -2.55; 
145;152;2019/06/21 14:44:36;450; 342; 7.63506; 449.865; 341.35; 4; 0; 1; -0.175706; -2.06399; -1.96904;-0.180732; -2.06998; -1.95512;0.00814947; -0.00650501; -0.0920293;0.0341906; -0.0347724; -0.499378;-1; -1; -1; -1; -1; 100; 0; 0; 0; 0; 0;0; 0; 0;0; 0; 0;0; 0; 0;1; -0.180732; -2.06998; -1.5; 0; 0; 0; -3.35648; -42.9438; -3.35648; 670; 228; 1024; 1024; 1024; 204; 1024; 1024; 1024; 0; 3; 0; 1300; 15; 9; 0.0166831; 0; 0; 0; -0.361463; -2.69097; -2.55; 
146;153;2019/06/21 14:44:36;450; 342; 7.63506; 449.831; 341.187; 5; 0; 1; -0.175706; -2.06399; -1.96904;-0.180732; -2.06998; -1.95512;0.00814947; -0.00650501; -0.0920293;0.0341906; -0.0347724; -0.499378;-1; -1; -1; -1; -1; 100; 0; 0; 0; 0; 0;0; 0; 0;0; 0; 0;0; 0; 0;1; -0.180732; -2.06998; -1.5; 0; 0; 0; -3.35648; -42.9438; -3.35648; 670; 228; 1024; 1024; 1024; 204; 1024; 1024; 1024; 0; 3; 0; 1300; 15; 9; 0.0166831; 0; 0; 0; -0.361463; -2.69097; -2.55; 
147;154;2019/06/21 14:44:36;450; 342; 7.63506; 449.797; 341.025; 6; 0; 1; -0.175706; -2.06399; -1.96904;-0.180732; -2.06998; -1.95512;0.00814947; -0.00650501; -0.0920293;0.0341906; -0.0347724; -0.499378;-1; -1; -1; -1; -1; 100; 0; 0; 0; 0; 0;0; 0; 0;0; 0; 0;0; 0; 0;1; -0.180732; -2.06998; -1.5; 0; 0; 0; -3.35648; -42.9438; -3.35648; 670; 228; 1024; 1024; 1024; 204; 1024; 1024; 1024; 0; 3; 0; 1300; 15; 9; 0.0166831; 0; 0; 0; -0.361463; -2.69097; -2.55; 
