ID;RS_ID;time;insect_log;imLx_drone; imLy_drone; disparity_drone; imLx_pred_drone; imLy_pred_drone; n_frames_lost_drone; n_frames_tracking_drone; foundL_drone; posX_drone; posY_drone; posZ_drone; sposX_drone; sposY_drone; sposZ_drone; svelX_drone; svelY_drone; svelZ_drone; saccX_drone; saccY_drone; saccZ_drone; imLx_insect; imLy_insect; disparity_insect; imLx_pred_insect; imLy_pred_insect; n_frames_lost_insect; n_frames_tracking_insect; foundL_insect; posX_insect; posY_insect; posZ_insect; sposX_insect; sposY_insect; sposZ_insect; svelX_insect; svelY_insect; svelZ_insect; saccX_insect; saccY_insect; saccZ_insect; valid; posErrX; posErrY; posErrZ; velX; velY; velZ; accX; accY; accZ; hoverthrottle; autoThrottle; autoRoll; autoPitch; autoYaw; joyThrottle; joyRoll; joyPitch; joyYaw; joyArmSwitch; joyModeSwitch; joyTakeoffSwitch; throttleP; throttleI; throttleD; dt; dx; dy; dz; velx_sp; vely_sp; velz_sp;
950;953;2019/07/17 13:12:34;0;-1;-1;-1;461.583;398.667;100;0;0;0;0;0;0;0;0;0;0;0;0;0;0;844;318;14.8093;844;318.495;0;1;1;-1.41817;-0.976459;-1.07741;-1.41817;-0.976459;-1.07741;0;0;0;0;0;0;0;0;0;0;0;0;0;0;0;0;1000;228;1024;1024;1024;930;1024;1024;1024;1;3;0;1300;15;9;0;0;0;0;0;0;0; 
951;954;2019/07/17 13:12:34;0;-1;-1;-1;461.583;398.667;100;0;0;0;0;0;0;0;0;0;0;0;0;0;0;842.25;317.75;14.5677;843.841;318.921;0;2;1;-1.43569;-0.991921;-1.09573;-1.42342;-0.981098;-1.08291;0;0;0;0;0;0;0;0;0;0;0;0;0;0;0;0;1000;228;1024;1024;1024;930;1024;1024;1024;1;3;0;1300;15;9;0;0;0;0;0;0;0; 
952;955;2019/07/17 13:12:34;0;-1;-1;-1;461.583;398.667;100;0;0;0;0;0;0;0;0;0;0;0;0;0;0;838.571;318;14.5;842.994;319.268;0;3;1;-1.42973;-0.997286;-1.10039;-1.42532;-0.985954;-1.08815;0;0;0;0;0;0;0;0;0;0;0;0;0;0;0;0;1000;228;1024;1024;1024;930;1024;1024;1024;1;3;0;1300;15;9;0;0;0;0;0;0;0; 
953;956;2019/07/17 13:12:34;0;-1;-1;-1;461.583;398.667;100;0;0;0;0;0;0;0;0;0;0;0;0;0;0;837;318.4;14.4892;841.746;319.582;0;4;1;-1.42539;-0.999198;-1.10048;-1.42534;-0.989927;-1.09185;0;0;0;0;0;0;0;0;0;0;0;0;0;0;0;0;1000;228;1024;1024;1024;930;1024;1024;1024;1;3;0;1300;15;9;0;0;0;0;0;0;0; 
954;957;2019/07/17 13:12:34;0;-1;-1;-1;461.583;398.667;100;0;0;0;0;0;0;0;0;0;0;0;0;0;0;832.25;319.75;14.513;839.487;320.115;0;5;1;-1.40672;-1.0015;-1.09623;-1.41975;-0.993399;-1.09317;0;0;0;0;0;0;0;0;0;0;0;0;0;0;0;0;1000;228;1024;1024;1024;930;1024;1024;1024;1;3;0;1300;15;9;0;0;0;0;0;0;0; 
955;958;2019/07/17 13:12:34;0;-1;-1;-1;461.583;398.667;100;0;0;0;0;0;0;0;0;0;0;0;0;0;0;831.333;319.778;14.3503;837.39;320.523;0;6;1;-1.41948;-1.01294;-1.1086;-1.41967;-0.99926;-1.0978;0;0;0;0;0;0;0;0;0;0;0;0;0;0;0;0;1000;228;1024;1024;1024;930;1024;1024;1024;1;3;0;1300;15;9;0;0;0;0;0;0;0; 
956;959;2019/07/17 13:12:34;0;-1;-1;-1;461.583;398.667;100;0;0;0;0;0;0;0;0;0;0;0;0;0;0;827.333;320.222;14.4482;834.686;320.937;0;7;1;-1.39604;-1.00738;-1.10028;-1.41258;-1.00169;-1.09854;0;0;0;0;0;0;0;0;0;0;0;0;0;0;0;0;1000;228;1024;1024;1024;930;1024;1024;1024;1;3;0;1300;15;9;0;0;0;0;0;0;0; 
957;960;2019/07/17 13:12:34;0;-1;-1;-1;461.583;398.667;100;0;0;0;0;0;0;0;0;0;0;0;0;0;0;825;321;14.421;831.991;321.447;0;8;1;-1.3906;-1.01156;-1.10094;-1.40599;-1.00465;-1.09926;0.103071;-0.245194;-0.191834;0.41153;-0.978982;-0.765932;0;0;0;0;0;0;0;0;0;0;1000;228;1024;1024;1024;930;1024;1024;1024;1;3;0;1300;15;9;0;0;0;0;0;0;0; 
958;961;2019/07/17 13:12:34;0;-1;-1;-1;461.583;398.667;100;0;0;0;0;0;0;0;0;0;0;0;0;0;0;821;321;14.2354;828.861;321.816;0;9;1;-1.39471;-1.02475;-1.11529;-1.40261;-1.01068;-1.10407;0.152521;-0.245852;-0.178646;0.855888;-1.569;-1.17284;0;0;0;0;0;0;0;0;0;0;1000;228;1024;1024;1024;930;1024;1024;1024;1;3;0;1300;15;9;0;0;0;0;0;0;0; 
959;962;2019/07/17 13:12:34;0;-1;-1;-1;461.583;398.667;100;0;0;0;0;0;0;0;0;0;0;0;0;0;0;817;322;14.4083;825.408;322.359;0;10;1;-1.36413;-1.01539;-1.10008;-1.39106;-1.0121;-1.10287;0.228367;-0.236027;-0.151182;1.42533;-1.88378;-1.30733;0;0;0;0;0;0;0;0;0;0;1000;228;1024;1024;1024;930;1024;1024;1024;1;3;0;1300;15;9;0;0;0;0;0;0;0; 
960;963;2019/07/17 13:12:34;0;-1;-1;-1;461.583;398.667;100;0;0;0;0;0;0;0;0;0;0;0;0;0;0;814.4;322;14.196;822.115;322.749;0;11;1;-1.37538;-1.03058;-1.11653;-1.38636;-1.01764;-1.10697;0.27035;-0.238405;-0.145819;1.93463;-2.08215;-1.36661;0;0;0;0;0;0;0;0;0;0;1000;228;1024;1024;1024;930;1024;1024;1024;1;3;0;1300;15;9;0;0;0;0;0;0;0; 
961;964;2019/07/17 13:12:34;0;-1;-1;-1;461.583;398.667;100;0;0;0;0;0;0;0;0;0;0;0;0;0;0;810;322.571;14.2927;818.424;323.189;0;12;1;-1.35072;-1.0253;-1.10792;-1.37567;-1.01994;-1.10725;0.3379;-0.225607;-0.12525;2.50991;-2.15007;-1.32005;0;0;0;0;0;0;0;0;0;0;1000;228;1024;1024;1024;930;1024;1024;1024;1;3;0;1300;15;9;0;0;0;0;0;0;0; 
962;965;2019/07/17 13:12:34;0;-1;-1;-1;461.583;398.667;100;0;0;0;0;0;0;0;0;0;0;0;0;0;0;809;322.4;13.9629;815.418;323.45;0;13;1;-1.37905;-1.049;-1.13442;-1.37668;-1.02866;-1.1154;0.346074;-0.243019;-0.14247;2.88771;-2.26034;-1.36087;0;0;0;0;0;0;0;0;0;0;1000;228;1024;1024;1024;930;1024;1024;1024;1;3;0;1300;15;9;0;0;0;0;0;0;0; 
963;966;2019/07/17 13:12:34;0;-1;-1;-1;461.583;398.667;100;0;0;0;0;0;0;0;0;0;0;0;0;0;0;804;323.429;14.0056;811.754;323.929;0;14;1;-1.35703;-1.04891;-1.12902;-1.37079;-1.03473;-1.11949;0.348195;-0.265906;-0.166243;2.71133;-1.43891;-0.714347;0;0;0;0;0;0;0;0;0;0;1000;228;1024;1024;1024;930;1024;1024;1024;1;3;0;1300;15;9;0;0;0;0;0;0;0; 
964;967;2019/07/17 13:12:35;0;-1;-1;-1;461.583;398.667;100;0;0;0;0;0;0;0;0;0;0;0;0;0;0;801.429;324;14.174;808.313;324.434;0;15;1;-1.33185;-1.03816;-1.11454;-1.35911;-1.03576;-1.118;0.382593;-0.259671;-0.155385;2.54541;-0.918521;-0.335733;0;0;0;0;0;0;0;0;0;0;1000;228;1024;1024;1024;930;1024;1024;1024;1;3;0;1300;15;9;0;0;0;0;0;0;0; 
965;968;2019/07/17 13:12:35;0;-1;-1;-1;461.583;398.667;100;0;0;0;0;0;0;0;0;0;0;0;0;0;0;799.6;324;13.7056;805.255;324.791;0;16;1;-1.37071;-1.07363;-1.15263;-1.36259;-1.04712;-1.12839;0.343242;-0.295652;-0.195126;1.98591;-0.789178;-0.376893;0;0;0;0;0;0;0;0;0;0;1000;228;1024;1024;1024;930;1024;1024;1024;1;3;0;1300;15;9;0;0;0;0;0;0;0; 
966;969;2019/07/17 13:12:35;0;-1;-1;-1;461.583;398.667;100;0;0;0;0;0;0;0;0;0;0;0;0;0;0;795.75;324.25;13.8307;801.879;325.112;0;17;1;-1.34443;-1.0647;-1.14173;-1.35714;-1.05239;-1.13239;0.322601;-0.316152;-0.218596;1.40016;-0.783926;-0.516711;0;0;0;0;0;0;0;0;0;0;1000;228;1024;1024;1024;930;1024;1024;1024;1;3;0;1300;15;9;0;0;0;0;0;0;0; 
967;970;2019/07/17 13:12:35;0;-1;-1;-1;461.583;398.667;100;0;0;0;0;0;0;0;0;0;0;0;0;0;0;794.4;324;13.5803;799.015;325.257;0;18;1;-1.36425;-1.08354;-1.16326;-1.35927;-1.06174;-1.14166;0.25901;-0.356584;-0.268514;0.525116;-0.99331;-0.882033;0;0;0;0;0;0;0;0;0;0;1000;228;1024;1024;1024;930;1024;1024;1024;1;3;0;1300;15;9;0;0;0;0;0;0;0; 
968;971;2019/07/17 13:12:35;0;-1;-1;-1;461.583;398.667;100;0;0;0;0;0;0;0;0;0;0;0;0;0;0;791.091;324.727;13.6822;795.941;325.566;0;19;1;-1.34203;-1.07773;-1.1532;-1.3541;-1.06653;-1.14512;0.245574;-0.365181;-0.279759;-0.0861947;-1.08374;-1.07737;0;0;0;0;0;0;0;0;0;0;1000;228;1024;1024;1024;930;1024;1024;1024;1;3;0;1300;15;9;0;0;0;0;0;0;0; 
969;972;2019/07/17 13:12:35;0;-1;-1;-1;461.583;398.667;100;0;0;0;0;0;0;0;0;0;0;0;0;0;0;787.667;325.667;13.6486;792.677;326.06;0;20;1;-1.33281;-1.0833;-1.15423;-1.34771;-1.07156;-1.14785;0.239465;-0.366161;-0.281112;-0.485843;-1.05053;-1.10506;0;0;0;0;0;0;0;0;0;0;1000;228;1024;1024;1024;930;1024;1024;1024;1;3;0;1300;15;9;0;0;0;0;0;0;0; 
970;973;2019/07/17 13:12:35;0;-1;-1;-1;461.583;398.667;100;0;0;0;0;0;0;0;0;0;0;0;0;0;0;786.4;326;13.5446;789.93;326.506;0;21;1;-1.33838;-1.09266;-1.16244;-1.34491;-1.07789;-1.15223;0.200351;-0.387911;-0.305321;-1.01914;-1.14234;-1.26169;0;0;0;0;0;0;0;0;0;0;1000;228;1024;1024;1024;930;1024;1024;1024;1;3;0;1300;15;9;0;0;0;0;0;0;0; 
971;974;2019/07/17 13:12:35;0;-1;-1;-1;461.583;398.667;100;0;0;0;0;0;0;0;0;0;0;0;0;0;0;782.25;327.75;13.5268;786.685;327.349;0;22;1;-1.32483;-1.09958;-1.16056;-1.33889;-1.0844;-1.15473;0.214834;-0.381572;-0.288354;-1.12418;-1.02846;-1.12924;0;0;0;0;0;0;0;0;0;0;1000;228;1024;1024;1024;930;1024;1024;1024;1;3;0;1300;15;9;0;0;0;0;0;0;0; 
972;975;2019/07/17 13:12:35;0;-1;-1;-1;461.583;398.667;100;0;0;0;0;0;0;0;0;0;0;0;0;0;0;780;327.429;13.4422;783.657;327.849;0;23;1;-1.32482;-1.10549;-1.1685;-1.33467;-1.09072;-1.15886;0.218627;-0.38198;-0.278684;-1.08964;-0.879903;-0.91746;0;0;0;0;0;0;0;0;0;0;1000;228;1024;1024;1024;930;1024;1024;1024;1;3;0;1300;15;9;0;0;0;0;0;0;0; 
973;976;2019/07/17 13:12:35;0;-1;-1;-1;461.583;398.667;100;0;0;0;0;0;0;0;0;0;0;0;0;0;0;777;329;13.4747;780.56;328.68;0;24;1;-1.31051;-1.10776;-1.1626;-1.32742;-1.09583;-1.15998;0.258355;-0.36532;-0.240389;-0.656405;-0.562822;-0.438183;0;0;0;0;0;0;0;0;0;0;1000;228;1024;1024;1024;930;1024;1024;1024;1;3;0;1300;15;9;0;0;0;0;0;0;0; 
974;977;2019/07/17 13:12:35;0;-1;-1;-1;461.583;398.667;100;0;0;0;0;0;0;0;0;0;0;0;0;0;0;773.429;330;13.4567;777.237;329.577;0;25;1;-1.29902;-1.11238;-1.1622;-1.3189;-1.1008;-1.16065;0.295555;-0.356;-0.20623;-0.194284;-0.301035;0.0306665;0;0;0;0;0;0;0;0;0;0;1000;228;1024;1024;1024;930;1024;1024;1024;1;3;0;1300;15;9;0;0;0;0;0;0;0; 
975;978;2019/07/17 13:12:35;0;-1;-1;-1;461.583;398.667;100;0;0;0;0;0;0;0;0;0;0;0;0;0;0;770.4;330;13.3524;773.919;330.212;0;26;1;-1.29785;-1.12108;-1.17128;-1.31259;-1.10688;-1.16384;0.31759;-0.354619;-0.187558;0.195359;-0.134537;0.391933;0;0;0;0;0;0;0;0;0;0;1000;228;1024;1024;1024;930;1024;1024;1024;1;3;0;1300;15;9;0;0;0;0;0;0;0; 
976;979;2019/07/17 13:12:35;0;-1;-1;-1;461.583;398.667;100;0;0;0;0;0;0;0;0;0;0;0;0;0;0;767;332;13.3923;770.492;331.276;0;27;1;-1.28132;-1.12407;-1.16385;-1.3032;-1.11204;-1.16384;0.357084;-0.349108;-0.1589;0.743003;0.0742064;0.819775;0;0;0;0;0;0;0;0;0;0;1000;228;1024;1024;1024;930;1024;1024;1024;1;3;0;1300;15;9;0;0;0;0;0;0;0; 
977;980;2019/07/17 13:12:35;0;-1;-1;-1;461.583;398.667;100;0;0;0;0;0;0;0;0;0;0;0;0;0;0;762.667;331.778;13.306;766.697;331.962;0;28;1;-1.27338;-1.13065;-1.17184;-1.29426;-1.11762;-1.16624;0.392456;-0.342118;-0.141306;1.15499;0.202049;1.07898;0;0;0;0;0;0;0;0;0;0;1000;228;1024;1024;1024;930;1024;1024;1024;1;3;0;1300;15;9;0;0;0;0;0;0;0; 
978;981;2019/07/17 13:12:35;0;-1;-1;-1;461.583;398.667;100;0;0;0;0;0;0;0;0;0;0;0;0;0;0;758.571;333.143;13.3565;762.711;332.866;0;29;1;-1.25326;-1.13071;-1.16472;-1.28196;-1.12155;-1.16579;0.445933;-0.328339;-0.112432;1.60058;0.335404;1.3112;0;0;0;0;0;0;0;0;0;0;1000;228;1024;1024;1024;930;1024;1024;1024;1;3;0;1300;15;9;0;0;0;0;0;0;0; 
979;982;2019/07/17 13:12:35;0;-1;-1;-1;461.583;398.667;100;0;0;0;0;0;0;0;0;0;0;0;0;0;0;755.667;332.167;12.9144;758.959;333.197;0;30;1;-1.28494;-1.16621;-1.20658;-1.28285;-1.13494;-1.17802;0.445515;-0.353161;-0.139487;1.70763;0.24979;1.1896;0;0;0;0;0;0;0;0;0;0;1000;228;1024;1024;1024;930;1024;1024;1024;1;3;0;1300;15;9;0;0;0;0;0;0;0; 
980;983;2019/07/17 13:12:35;0;-1;-1;-1;461.583;398.667;100;0;0;0;0;0;0;0;0;0;0;0;0;0;0;751;334;13.1352;754.83;333.99;0;31;1;-1.24561;-1.15251;-1.18262;-1.27168;-1.14022;-1.1794;0.455853;-0.369275;-0.158569;1.66461;0.096871;0.904058;0;0;0;0;0;0;0;0;0;0;1000;228;1024;1024;1024;930;1024;1024;1024;1;3;0;1300;15;9;0;0;0;0;0;0;0; 
981;984;2019/07/17 13:12:35;0;-1;-1;-1;461.583;398.667;100;0;0;0;0;0;0;0;0;0;0;0;0;0;0;748.727;333.818;12.9243;751.181;334.487;0;32;1;-1.25716;-1.17073;-1.20228;-1.26732;-1.14937;-1.18627;0.454236;-0.391197;-0.184693;1.54436;-0.0879266;0.553874;0;0;0;0;0;0;0;0;0;0;1000;228;1024;1024;1024;930;1024;1024;1024;1;3;0;1300;15;9;0;0;0;0;0;0;0; 
982;985;2019/07/17 13:12:35;0;-1;-1;-1;461.583;398.667;100;0;0;0;0;0;0;0;0;0;0;0;0;0;0;744;334;12.9027;747.113;334.883;0;33;1;-1.24099;-1.17329;-1.20393;-1.25942;-1.15654;-1.19157;0.447353;-0.412422;-0.22151;1.28704;-0.305553;0.0823376;0;0;0;0;0;0;0;0;0;0;1000;228;1024;1024;1024;930;1024;1024;1024;1;3;0;1300;15;9;0;0;0;0;0;0;0; 
983;986;2019/07/17 13:12:35;0;-1;-1;-1;461.583;398.667;100;0;0;0;0;0;0;0;0;0;0;0;0;0;0;741.333;334.222;12.7853;743.393;335.218;0;34;1;-1.24198;-1.1848;-1.21453;-1.25419;-1.16502;-1.19845;0.428393;-0.436709;-0.261524;0.91571;-0.561009;-0.430601;0;0;0;0;0;0;0;0;0;0;1000;228;1024;1024;1024;930;1024;1024;1024;1;3;0;1300;15;9;0;0;0;0;0;0;0; 
984;987;2019/07/17 13:12:35;0;-1;-1;-1;461.583;398.667;100;0;0;0;0;0;0;0;0;0;0;0;0;0;0;737.333;334.222;12.6445;739.508;335.439;0;35;1;-1.24002;-1.19799;-1.22805;-1.24994;-1.17491;-1.20733;0.384885;-0.475095;-0.322805;0.305682;-0.922556;-1.09831;0;0;0;0;0;0;0;0;0;0;1000;228;1024;1024;1024;930;1024;1024;1024;1;3;0;1300;15;9;0;0;0;0;0;0;0; 
985;988;2019/07/17 13:12:35;0;-1;-1;-1;461.583;398.667;100;0;0;0;0;0;0;0;0;0;0;0;0;0;0;734;335;12.7336;735.716;335.822;0;36;1;-1.21828;-1.19219;-1.21785;-1.24044;-1.1801;-1.21049;0.400269;-0.465337;-0.323306;0.00275573;-1.00142;-1.39292;0;0;0;0;0;0;0;0;0;0;1000;228;1024;1024;1024;930;1024;1024;1024;1;3;0;1300;15;9;0;0;0;0;0;0;0; 
986;989;2019/07/17 13:12:35;0;-1;-1;-1;461.583;398.667;100;0;0;0;0;0;0;0;0;0;0;0;0;0;0;731;335;12.5441;732.102;336.078;0;37;1;-1.22475;-1.21021;-1.23625;-1.23573;-1.18913;-1.21822;0.383681;-0.474503;-0.348961;-0.28651;-1.021;-1.59593;0;0;0;0;0;0;0;0;0;0;1000;228;1024;1024;1024;930;1024;1024;1024;1;3;0;1300;15;9;0;0;0;0;0;0;0; 
987;990;2019/07/17 13:12:35;0;-1;-1;-1;461.583;398.667;100;0;0;0;0;0;0;0;0;0;0;0;0;0;0;727;335;12.5719;728.302;336.243;0;38;1;-1.20617;-1.20753;-1.23351;-1.22686;-1.19465;-1.22281;0.391751;-0.465499;-0.355268;-0.421389;-0.909262;-1.63861;0;0;0;0;0;0;0;0;0;0;1000;228;1024;1024;1024;930;1024;1024;1024;1;3;0;1300;15;9;0;0;0;0;0;0;0; 
988;991;2019/07/17 13:12:35;0;-1;-1;-1;461.583;398.667;100;0;0;0;0;0;0;0;0;0;0;0;0;0;0;725;335.6;12.5096;725.003;336.53;0;39;1;-1.20419;-1.21557;-1.23839;-1.22006;-1.20093;-1.22748;0.39221;-0.456503;-0.356554;-0.473003;-0.721558;-1.52236;0;0;0;0;0;0;0;0;0;0;1000;228;1024;1024;1024;930;1024;1024;1024;1;3;0;1300;15;9;0;0;0;0;0;0;0; 
989;992;2019/07/17 13:12:35;0;-1;-1;-1;461.583;398.667;100;0;0;0;0;0;0;0;0;0;0;0;0;0;0;721.429;336;12.4885;721.573;336.845;0;40;1;-1.19196;-1.21898;-1.23964;-1.21163;-1.20634;-1.23113;0.405251;-0.438891;-0.344382;-0.3762;-0.441648;-1.24424;0;0;0;0;0;0;0;0;0;0;1000;228;1024;1024;1024;930;1024;1024;1024;1;3;0;1300;15;9;0;0;0;0;0;0;0; 
990;993;2019/07/17 13:12:35;0;-1;-1;-1;461.583;398.667;100;0;0;0;0;0;0;0;0;0;0;0;0;0;0;719.6;336;12.3871;718.603;337.052;0;41;1;-1.19434;-1.22896;-1.24978;-1.20644;-1.21313;-1.23672;0.416805;-0.415924;-0.323974;-0.0982721;-0.0287365;-0.751215;0;0;0;0;0;0;0;0;0;0;1000;228;1024;1024;1024;930;1024;1024;1024;1;3;0;1300;15;9;0;0;0;0;0;0;0; 
991;994;2019/07/17 13:12:35;0;-1;-1;-1;461.583;398.667;100;0;0;0;0;0;0;0;0;0;0;0;0;0;0;716;337;12.3993;715.406;337.5;0;42;1;-1.17868;-1.23117;-1.24643;-1.19812;-1.21854;-1.23963;0.41907;-0.40305;-0.310759;0.0161032;0.231451;-0.400635;0;0;0;0;0;0;0;0;0;0;1000;228;1024;1024;1024;930;1024;1024;1024;1;3;0;1300;15;9;0;0;0;0;0;0;0; 
992;995;2019/07/17 13:12:35;0;-1;-1;-1;461.583;398.667;100;0;0;0;0;0;0;0;0;0;0;0;0;0;0;714;337.429;12.3645;712.553;337.941;0;43;1;-1.17393;-1.23611;-1.24903;-1.19086;-1.22381;-1.24245;0.430602;-0.380302;-0.283226;0.197003;0.514987;0.0220782;0;0;0;0;0;0;0;0;0;0;1000;228;1024;1024;1024;930;1024;1024;1024;1;3;0;1300;15;9;0;0;0;0;0;0;0; 
993;996;2019/07/17 13:12:35;0;-1;-1;-1;461.583;398.667;100;0;0;0;0;0;0;0;0;0;0;0;0;0;0;710;337.429;12.2933;709.317;338.241;0;44;1;-1.16449;-1.24326;-1.25626;-1.18295;-1.22965;-1.24659;0.43369;-0.36791;-0.264917;0.285648;0.698635;0.373992;0;0;0;0;0;0;0;0;0;0;1000;228;1024;1024;1024;930;1024;1024;1024;1;3;0;1300;15;9;0;0;0;0;0;0;0; 
994;997;2019/07/17 13:12:35;0;-1;-1;-1;461.583;398.667;100;0;0;0;0;0;0;0;0;0;0;0;0;0;0;707;338;12.3553;706.121;338.62;0;45;1;-1.14654;-1.23899;-1.24874;-1.17203;-1.23245;-1.24724;0.452003;-0.346605;-0.237834;0.410123;0.857969;0.698408;0;0;0;0;0;0;0;0;0;0;1000;228;1024;1024;1024;930;1024;1024;1024;1;3;0;1300;15;9;0;0;0;0;0;0;0; 
995;998;2019/07/17 13:12:35;0;-1;-1;-1;461.583;398.667;100;0;0;0;0;0;0;0;0;0;0;0;0;0;0;705.6;338;12.0601;703.464;338.875;0;46;1;-1.16881;-1.26931;-1.2793;-1.17106;-1.24351;-1.25686;0.433182;-0.35635;-0.245431;0.357595;0.844342;0.814125;0;0;0;0;0;0;0;0;0;0;1000;228;1024;1024;1024;930;1024;1024;1024;1;3;0;1300;15;9;0;0;0;0;0;0;0; 
996;999;2019/07/17 13:12:35;0;-1;-1;-1;461.583;398.667;100;0;0;0;0;0;0;0;0;0;0;0;0;0;0;702;338.571;12.0398;700.5;339.222;0;47;1;-1.15586;-1.27347;-1.28021;-1.1665;-1.2525;-1.26386;0.419396;-0.37099;-0.255616;0.224899;0.686011;0.761408;0;0;0;0;0;0;0;0;0;0;1000;228;1024;1024;1024;930;1024;1024;1024;1;3;0;1300;15;9;0;0;0;0;0;0;0; 
997;1000;2019/07/17 13:12:35;0;-1;-1;-1;461.583;398.667;100;0;0;0;0;0;0;0;0;0;0;0;0;0;0;700;339;11.9146;697.823;339.591;0;48;1;-1.15962;-1.28837;-1.29271;-1.16444;-1.26326;-1.27252;0.386106;-0.401134;-0.284658;0.00332397;0.419255;0.561058;0;0;0;0;0;0;0;0;0;0;1000;228;1024;1024;1024;930;1024;1024;1024;1;3;0;1300;15;9;0;0;0;0;0;0;0; 
998;1001;2019/07/17 13:12:35;0;-1;-1;-1;461.583;398.667;100;0;0;0;0;0;0;0;0;0;0;0;0;0;0;697;340;11.9037;695.036;340.158;0;49;1;-1.14811;-1.29311;-1.29168;-1.15954;-1.27221;-1.27827;0.356722;-0.433933;-0.313787;-0.292983;0.0374192;0.214616;0;0;0;0;0;0;0;0;0;0;1000;228;1024;1024;1024;930;1024;1024;1024;1;3;0;1300;15;9;0;0;0;0;0;0;0; 
999;1002;2019/07/17 13:12:35;0;-1;-1;-1;461.583;398.667;100;0;0;0;0;0;0;0;0;0;0;0;0;0;0;694;340.571;11.7596;692.17;340.732;0;50;1;-1.14945;-1.31102;-1.30623;-1.15651;-1.28385;-1.28666;0.319589;-0.476793;-0.348226;-0.63136;-0.412284;-0.203861;0;0;0;0;0;0;0;0;0;0;1000;228;1024;1024;1024;930;1024;1024;1024;1;3;0;1300;15;9;0;0;0;0;0;0;0; 
1000;1003;2019/07/17 13:12:35;0;-1;-1;-1;461.583;398.667;100;0;0;0;0;0;0;0;0;0;0;0;0;0;0;692;340;11.732;689.565;340.947;0;51;1;-1.14365;-1.31203;-1.31058;-1.15265;-1.29231;-1.29383;0.269101;-0.525074;-0.394986;-1.10909;-0.959944;-0.749775;0;0;0;0;0;0;0;0;0;0;1000;228;1024;1024;1024;930;1024;1024;1024;1;3;0;1300;15;9;0;0;0;0;0;0;0; 
1001;1004;2019/07/17 13:12:35;0;-1;-1;-1;461.583;398.667;100;0;0;0;0;0;0;0;0;0;0;0;0;0;0;688.571;342;11.8969;686.696;341.72;0;52;1;-1.11342;-1.30097;-1.28799;-1.14088;-1.29491;-1.29208;0.281948;-0.520266;-0.377635;-1.26928;-1.23043;-0.977714;0;0;0;0;0;0;0;0;0;0;1000;228;1024;1024;1024;930;1024;1024;1024;1;3;0;1300;15;9;0;0;0;0;0;0;0; 
1002;1005;2019/07/17 13:12:35;0;-1;-1;-1;461.583;398.667;100;0;0;0;0;0;0;0;0;0;0;0;0;0;0;687;341.6;11.6031;684.226;342.134;0;53;1;-1.13485;-1.33245;-1.32151;-1.13907;-1.30617;-1.30091;0.278674;-0.526467;-0.3745;-1.32343;-1.35903;-1.06129;0;0;0;0;0;0;0;0;0;0;1000;228;1024;1024;1024;930;1024;1024;1024;1;3;0;1300;15;9;0;0;0;0;0;0;0; 
1003;1006;2019/07/17 13:12:35;0;-1;-1;-1;461.583;398.667;100;0;0;0;0;0;0;0;0;0;0;0;0;0;0;684;342.571;11.7185;681.592;342.724;0;54;1;-1.1109;-1.32284;-1.30631;-1.13062;-1.31117;-1.30253;0.302226;-0.507183;-0.344528;-1.12897;-1.23884;-0.875819;0;0;0;0;0;0;0;0;0;0;1000;228;1024;1024;1024;930;1024;1024;1024;1;3;0;1300;15;9;0;0;0;0;0;0;0; 
1004;1007;2019/07/17 13:12:35;0;-1;-1;-1;461.583;398.667;100;0;0;0;0;0;0;0;0;0;0;0;0;0;0;681.429;342.857;11.6009;678.974;343.223;0;55;1;-1.1111;-1.3373;-1.31891;-1.12476;-1.31901;-1.30744;0.320179;-0.491152;-0.323207;-0.823284;-0.971762;-0.563106;0;0;0;0;0;0;0;0;0;0;1000;228;1024;1024;1024;930;1024;1024;1024;1;3;0;1300;15;9;0;0;0;0;0;0;0; 
1005;1008;2019/07/17 13:12:35;0;-1;-1;-1;461.583;398.667;100;0;0;0;0;0;0;0;0;0;0;0;0;0;0;679;343.6;11.5665;676.414;343.802;0;56;1;-1.10393;-1.344;-1.32114;-1.11851;-1.32651;-1.31155;0.343826;-0.464987;-0.293322;-0.397197;-0.535918;-0.118645;0;0;0;0;0;0;0;0;0;0;1000;228;1024;1024;1024;930;1024;1024;1024;1;3;0;1300;15;9;0;0;0;0;0;0;0; 
1006;1009;2019/07/17 13:12:35;0;-1;-1;-1;461.583;398.667;100;0;0;0;0;0;0;0;0;0;0;0;0;0;0;676.25;343.75;11.6176;673.795;344.249;0;57;1;-1.08726;-1.33863;-1.31498;-1.10914;-1.33014;-1.31258;0.380042;-0.430052;-0.250835;0.204637;0.0578419;0.504364;0;0;0;0;0;0;0;0;0;0;1000;228;1024;1024;1024;930;1024;1024;1024;1;3;0;1300;15;9;0;0;0;0;0;0;0; 
1007;1010;2019/07/17 13:12:35;0;-1;-1;-1;461.583;398.667;100;0;0;0;0;0;0;0;0;0;0;0;0;0;0;674.571;344;11.5475;671.472;344.633;0;58;1;-1.08661;-1.34768;-1.3224;-1.10238;-1.3354;-1.31552;0.38176;-0.419715;-0.244102;0.5213;0.436176;0.835776;0;0;0;0;0;0;0;0;0;0;1000;228;1024;1024;1024;930;1024;1024;1024;1;3;0;1300;15;9;0;0;0;0;0;0;0; 
1008;1011;2019/07/17 13:12:35;0;-1;-1;-1;461.583;398.667;100;0;0;0;0;0;0;0;0;0;0;0;0;0;0;672.25;344.25;11.551;669.161;344.97;0;59;1;-1.07625;-1.34819;-1.32143;-1.09454;-1.33924;-1.3173;0.406858;-0.383854;-0.211882;0.824581;0.831116;1.15075;0;0;0;0;0;0;0;0;0;0;1000;228;1024;1024;1024;930;1024;1024;1024;1;3;0;1300;15;9;0;0;0;0;0;0;0; 
1009;1012;2019/07/17 13:12:35;0;-1;-1;-1;461.583;398.667;100;0;0;0;0;0;0;0;0;0;0;0;0;0;0;669;345;11.5172;666.562;345.434;0;60;1;-1.06533;-1.3549;-1.32358;-1.08578;-1.34393;-1.31918;0.42316;-0.36113;-0.193619;0.9776;1.08182;1.29298;0;0;0;0;0;0;0;0;0;0;1000;228;1024;1024;1024;930;1024;1024;1024;1;3;0;1300;15;9;0;0;0;0;0;0;0; 
1010;1013;2019/07/17 13:12:35;0;-1;-1;-1;461.583;398.667;100;0;0;0;0;0;0;0;0;0;0;0;0;0;0;668.25;345.75;11.5043;664.549;345.99;0;61;1;-1.06327;-1.35918;-1.32335;-1.07902;-1.34851;-1.32043;0.436524;-0.334459;-0.168037;1.05109;1.27472;1.39534;0;0;0;0;0;0;0;0;0;0;1000;228;1024;1024;1024;930;1024;1024;1024;1;3;0;1300;15;9;0;0;0;0;0;0;0; 
1011;1014;2019/07/17 13:12:35;0;-1;-1;-1;461.583;398.667;100;0;0;0;0;0;0;0;0;0;0;0;0;0;0;666;347;11.5153;662.485;346.771;0;62;1;-1.0525;-1.36248;-1.31922;-1.07107;-1.3527;-1.32007;0.451358;-0.305256;-0.134833;1.05999;1.40259;1.47;0;0;0;0;0;0;0;0;0;0;1000;228;1024;1024;1024;930;1024;1024;1024;1;3;0;1300;15;9;0;0;0;0;0;0;0; 
1012;1015;2019/07/17 13:12:35;0;-1;-1;-1;461.583;398.667;100;0;0;0;0;0;0;0;0;0;0;0;0;0;0;664.667;347.778;11.4724;660.673;347.565;0;63;1;-1.05064;-1.37045;-1.32237;-1.06494;-1.35802;-1.32076;0.447289;-0.294473;-0.113559;0.904492;1.38288;1.4301;0;0;0;0;0;0;0;0;0;0;1000;228;1024;1024;1024;930;1024;1024;1024;1;3;0;1300;15;9;0;0;0;0;0;0;0; 
1013;1016;2019/07/17 13:12:35;0;-1;-1;-1;461.583;398.667;100;0;0;0;0;0;0;0;0;0;0;0;0;0;0;662;349;11.496;658.62;348.51;0;64;1;-1.03691;-1.37214;-1.31685;-1.05653;-1.36226;-1.31959;0.45144;-0.283906;-0.0843554;0.820906;1.37197;1.49588;0;0;0;0;0;0;0;0;0;0;1000;228;1024;1024;1024;930;1024;1024;1024;1;3;0;1300;15;9;0;0;0;0;0;0;0; 
1014;1017;2019/07/17 13:12:35;0;-1;-1;-1;461.583;398.667;100;0;0;0;0;0;0;0;0;0;0;0;0;0;0;661;349.6;11.4649;656.92;349.364;0;65;1;-1.03536;-1.37807;-1.31904;-1.05018;-1.367;-1.31942;0.447989;-0.281198;-0.0591092;0.656766;1.23306;1.5075;0;0;0;0;0;0;0;0;0;0;1000;228;1024;1024;1024;930;1024;1024;1024;1;3;0;1300;15;9;0;0;0;0;0;0;0; 
1015;1018;2019/07/17 13:12:35;0;-1;-1;-1;461.583;398.667;100;0;0;0;0;0;0;0;0;0;0;0;0;0;0;657.778;350.667;11.4627;654.768;350.302;0;66;1;-1.02154;-1.38228;-1.31684;-1.04159;-1.37159;-1.31865;0.44523;-0.279121;-0.0333413;0.482181;1.06727;1.54444;0;0;0;0;0;0;0;0;0;0;1000;228;1024;1024;1024;930;1024;1024;1024;1;3;0;1300;15;9;0;0;0;0;0;0;0; 
1016;1019;2019/07/17 13:12:35;0;-1;-1;-1;461.583;398.667;100;0;0;0;0;0;0;0;0;0;0;0;0;0;0;656;352;11.361;652.748;351.383;0;67;1;-1.02288;-1.39963;-1.32554;-1.03597;-1.38;-1.32072;0.439025;-0.293211;-0.0211447;0.299297;0.805052;1.51316;0;0;0;0;0;0;0;0;0;0;1000;228;1024;1024;1024;930;1024;1024;1024;1;3;0;1300;15;9;0;0;0;0;0;0;0; 
1017;1020;2019/07/17 13:12:35;0;-1;-1;-1;461.583;398.667;100;0;0;0;0;0;0;0;0;0;0;0;0;0;0;653.333;352.222;11.4715;650.538;352.215;0;68;1;-1.00143;-1.38697;-1.31227;-1.02561;-1.38209;-1.31818;0.444913;-0.293287;-0.00515278;0.153847;0.530821;1.42567;0;0;0;0;0;0;0;0;0;0;1000;1000;1024;1024;1024;930;1024;1024;1024;1;3;0;1300;15;9;0;0;0;0;0;0;0; 
1018;1021;2019/07/17 13:12:35;0;-1;-1;-1;461.583;398.667;101;0;0;0;0;0;0;0;0;0;0;0;0;0;0;651;353.6;11.2556;648.297;353.232;0;69;1;-1.01029;-1.41876;-1.3342;-1.02101;-1.39309;-1.32299;0.442331;-0.315995;-0.0119946;0.0725132;0.232563;1.26092;0;0;0;0;0;0;0;0;0;0;1000;1000;1024;1024;1024;930;1024;1024;1024;1;3;0;1300;15;9;0;0;0;0;0;0;0; 
1019;1022;2019/07/17 13:12:35;0;-1;-1;-1;461.583;398.667;102;0;0;0;0;0;0;0;0;0;0;0;0;0;0;648.667;354.222;11.3686;646.033;354.142;0;70;1;-0.990005;-1.40698;-1.3195;-1.01171;-1.39726;-1.32194;0.444346;-0.329346;-0.0166038;0.0151851;-0.0418878;1.02706;0;0;0;0;0;0;0;0;0;0;1000;1000;1024;1024;1024;930;1024;1024;1024;1;3;0;1300;15;9;0;0;0;0;0;0;0; 
1020;1023;2019/07/17 13:12:35;0;-1;-1;-1;461.583;398.667;103;0;0;0;0;0;0;0;0;0;0;0;0;0;0;645.6;355.2;11.3593;643.519;355.088;0;71;1;-0.977343;-1.41178;-1.31831;-1.0014;-1.40161;-1.32085;0.461367;-0.335804;-0.0156767;0.0625285;-0.24316;0.789651;0;0;0;0;0;0;0;0;0;0;1000;1000;1024;1024;1024;930;1024;1024;1024;1;3;0;1300;15;9;0;0;0;0;0;0;0; 
1021;1024;2019/07/17 13:12:35;0;-1;-1;-1;461.583;398.667;104;0;0;0;0;0;0;0;0;0;0;0;0;0;0;644;356;11.3225;641.289;356.002;0;72;1;-0.97347;-1.41936;-1.32074;-0.993021;-1.40694;-1.32082;0.470729;-0.342633;-0.0180691;0.139324;-0.39948;0.534768;0;0;0;0;0;0;0;0;0;0;1000;1000;1024;1024;1024;930;1024;1024;1024;1;3;0;1300;15;9;0;0;0;0;0;0;0; 
1022;1025;2019/07/17 13:12:35;0;-1;-1;-1;461.583;398.667;105;0;0;0;0;0;0;0;0;0;0;0;0;0;0;640.333;356.333;11.2764;638.609;356.744;0;73;1;-0.961223;-1.42641;-1.32536;-0.983482;-1.41278;-1.32218;0.492023;-0.336463;-0.0166825;0.295197;-0.41238;0.338677;0;0;0;0;0;0;0;0;0;0;1000;1000;1024;1024;1024;930;1024;1024;1024;1;3;0;1300;15;9;0;0;0;0;0;0;0; 
1023;1026;2019/07/17 13:12:35;0;-1;-1;-1;461.583;398.667;106;0;0;0;0;0;0;0;0;0;0;0;0;0;0;639;357;11.1957;636.344;357.466;0;74;1;-0.96221;-1.43922;-1.33334;-0.9771;-1.42071;-1.32553;0.488896;-0.356079;-0.0393448;0.352728;-0.498139;0.0666879;0;0;0;0;0;0;0;0;0;0;1000;1000;1024;1024;1024;930;1024;1024;1024;1;3;0;1300;15;9;0;0;0;0;0;0;0; 
1024;1027;2019/07/17 13:12:36;0;-1;-1;-1;461.583;398.667;107;0;0;0;0;0;0;0;0;0;0;0;0;0;0;636.667;357.778;11.1908;634.063;358.209;0;75;1;-0.952221;-1.44279;-1.33209;-0.969636;-1.42734;-1.3275;0.498466;-0.35037;-0.0416032;0.435765;-0.436134;-0.0782052;0;0;0;0;0;0;0;0;0;0;1000;1000;1024;1024;1024;930;1024;1024;1024;1;3;0;1300;15;9;0;0;0;0;0;0;0; 
1025;1028;2019/07/17 13:12:36;0;-1;-1;-1;461.583;398.667;108;0;0;0;0;0;0;0;0;0;0;0;0;0;0;633.667;358.333;11.2518;631.557;358.897;0;76;1;-0.933755;-1.43706;-1.32356;-0.958872;-1.43025;-1.32632;0.510047;-0.341956;-0.0424213;0.523783;-0.31203;-0.150005;0;0;0;0;0;0;0;0;0;0;1000;1000;1024;1024;1024;930;1024;1024;1024;1;3;0;1300;15;9;0;0;0;0;0;0;0; 
1026;1029;2019/07/17 13:12:36;0;-1;-1;-1;461.583;398.667;109;0;0;0;0;0;0;0;0;0;0;0;0;0;0;631.75;357.75;10.9731;629.234;359.181;0;77;1;-0.948756;-1.47131;-1.35858;-0.955837;-1.44257;-1.336;0.487946;-0.368693;-0.0859094;0.420392;-0.318533;-0.37042;0;0;0;0;0;0;0;0;0;0;1000;1000;1024;1024;1024;930;1024;1024;1024;1;3;0;1300;15;9;0;0;0;0;0;0;0; 
1027;1030;2019/07/17 13:12:36;0;-1;-1;-1;461.583;398.667;110;0;0;0;0;0;0;0;0;0;0;0;0;0;0;629;359;11.1706;626.777;359.758;0;78;1;-0.919695;-1.45003;-1.33161;-0.944994;-1.44481;-1.33468;0.484523;-0.372416;-0.106887;0.307313;-0.310035;-0.576876;0;0;0;0;0;0;0;0;0;0;1000;1000;1024;1024;1024;930;1024;1024;1024;1;3;0;1300;15;9;0;0;0;0;0;0;0; 
1028;1031;2019/07/17 13:12:36;0;-1;-1;-1;461.583;398.667;111;0;0;0;0;0;0;0;0;0;0;0;0;0;0;626.25;358.25;10.8996;624.224;359.908;0;79;1;-0.929973;-1.48317;-1.36653;-0.940488;-1.45632;-1.34424;0.462374;-0.397271;-0.152192;0.0660078;-0.428806;-0.887173;0;0;0;0;0;0;0;0;0;0;1000;1000;1024;1024;1024;930;1024;1024;1024;1;3;0;1300;15;9;0;0;0;0;0;0;0; 
1029;1032;2019/07/17 13:12:36;0;-1;-1;-1;461.583;398.667;112;0;0;0;0;0;0;0;0;0;0;0;0;0;0;623.333;359.333;10.9283;621.547;360.335;0;80;1;-0.914214;-1.48348;-1.36033;-0.932606;-1.46446;-1.34907;0.455077;-0.413047;-0.185287;-0.0954248;-0.484738;-1.11501;0;0;0;0;0;0;0;0;0;0;1000;1000;1024;1024;1024;930;1024;1024;1024;1;3;0;1300;15;9;0;0;0;0;0;0;0; 
1030;1033;2019/07/17 13:12:36;0;-1;-1;-1;461.583;398.667;113;0;0;0;0;0;0;0;0;0;0;0;0;0;0;622;359.429;10.8866;619.286;360.649;0;81;1;-0.911609;-1.48954;-1.36532;-0.926307;-1.47199;-1.35394;0.446048;-0.426105;-0.216761;-0.266542;-0.593231;-1.36835;0;0;0;0;0;0;0;0;0;0;1000;1000;1024;1024;1024;930;1024;1024;1024;1;3;0;1300;15;9;0;0;0;0;0;0;0; 
1031;1034;2019/07/17 13:12:36;0;-1;-1;-1;461.583;398.667;114;0;0;0;0;0;0;0;0;0;0;0;0;0;0;619;360;10.8177;616.796;361.032;0;82;1;-0.903573;-1.50126;-1.37262;-0.919486;-1.48077;-1.35954;0.424883;-0.457355;-0.262726;-0.49996;-0.816689;-1.70062;0;0;0;0;0;0;0;0;0;0;1000;1000;1024;1024;1024;930;1024;1024;1024;1;3;0;1300;15;9;0;0;0;0;0;0;0; 
1032;1035;2019/07/17 13:12:36;0;-1;-1;-1;461.583;398.667;115;0;0;0;0;0;0;0;0;0;0;0;0;0;0;617.429;360;10.705;614.595;361.284;0;83;1;-0.905757;-1.51705;-1.38706;-0.915368;-1.49165;-1.3678;0.416512;-0.470393;-0.284617;-0.58519;-0.896072;-1.81375;0;0;0;0;0;0;0;0;0;0;1000;1000;1024;1024;1024;930;1024;1024;1024;1;3;0;1300;15;9;0;0;0;0;0;0;0; 
1033;1036;2019/07/17 13:12:36;0;-1;-1;-1;461.583;398.667;116;0;0;0;0;0;0;0;0;0;0;0;0;0;0;615.667;359.667;10.7218;612.543;361.334;0;84;1;-0.896141;-1.51337;-1.38571;-0.9096;-1.49817;-1.37317;0.391228;-0.495286;-0.324464;-0.723613;-1.02822;-1.95697;0;0;0;0;0;0;0;0;0;0;1000;1000;1024;1024;1024;930;1024;1024;1024;1;3;0;1300;15;9;0;0;0;0;0;0;0; 
1034;1037;2019/07/17 13:12:36;0;-1;-1;-1;461.583;398.667;117;0;0;0;0;0;0;0;0;0;0;0;0;0;0;613.333;360.667;10.8352;610.416;361.665;0;85;1;-0.876019;-1.50144;-1.36878;-0.899526;-1.49915;-1.37186;0.398288;-0.468194;-0.304959;-0.690044;-0.900109;-1.78413;0;0;0;0;0;0;0;0;0;0;1000;1000;1024;1024;1024;930;1024;1024;1024;1;3;0;1300;15;9;0;0;0;0;0;0;0; 
1035;1038;2019/07/17 13:12:36;0;-1;-1;-1;461.583;398.667;118;0;0;0;0;0;0;0;0;0;0;0;0;0;0;613.429;360;10.6031;609.009;361.669;0;86;1;-0.895645;-1.53165;-1.40041;-0.898361;-1.5089;-1.38042;0.3757;-0.458332;-0.308171;-0.730954;-0.720873;-1.56112;0;0;0;0;0;0;0;0;0;0;1000;1000;1024;1024;1024;930;1024;1024;1024;1;3;0;1300;15;9;0;0;0;0;0;0;0; 
1036;1039;2019/07/17 13:12:36;0;-1;-1;-1;461.583;398.667;119;0;0;0;0;0;0;0;0;0;0;0;0;0;0;612;359;10.5074;607.637;361.329;0;87;1;-0.897017;-1.54156;-1.41567;-0.897958;-1.5187;-1.391;0.338607;-0.461507;-0.332846;-0.867552;-0.573873;-1.40016;0;0;0;0;0;0;0;0;0;0;1000;1000;1024;1024;1024;930;1024;1024;1024;1;3;0;1300;15;9;0;0;0;0;0;0;0; 
1037;1040;2019/07/17 13:12:36;0;-1;-1;-1;461.583;398.667;120;0;0;0;0;0;0;0;0;0;0;0;0;0;0;610.4;358.8;10.5048;606.234;360.997;0;88;1;-0.889638;-1.54114;-1.41652;-0.895462;-1.52543;-1.39865;0.299088;-0.455232;-0.355854;-1.0228;-0.33585;-1.21193;0;0;0;0;0;0;0;0;0;0;1000;1000;1024;1024;1024;930;1024;1024;1024;1;3;0;1300;15;9;0;0;0;0;0;0;0; 
1038;1041;2019/07/17 13:12:36;0;-1;-1;-1;461.583;398.667;121;0;0;0;0;0;0;0;0;0;0;0;0;0;0;610;357.429;10.4615;605.189;360.298;0;89;1;-0.891413;-1.54196;-1.42584;-0.894247;-1.53039;-1.40681;0.263781;-0.427806;-0.369261;-1.2235;-0.0314682;-1.06512;0;0;0;0;0;0;0;0;0;0;1000;1000;1024;1024;1024;930;1024;1024;1024;1;3;0;1300;15;9;0;0;0;0;0;0;0; 
1039;1042;2019/07/17 13:12:36;0;-1;-1;-1;461.583;398.667;122;0;0;0;0;0;0;0;0;0;0;0;0;0;0;609;357;10.5;604.211;359.636;0;90;1;-0.883389;-1.53457;-1.42168;-0.89099;-1.53165;-1.41127;0.232572;-0.390354;-0.373663;-1.36757;0.400085;-0.835514;0;0;0;0;0;0;0;0;0;0;1000;1000;1024;1024;1024;930;1024;1024;1024;1;3;0;1300;15;9;0;0;0;0;0;0;0; 
1040;1043;2019/07/17 13:12:36;0;-1;-1;-1;461.583;398.667;123;0;0;0;0;0;0;0;0;0;0;0;0;0;0;608;356.571;10.4349;603.279;359.002;0;91;1;-0.884121;-1.54241;-1.43164;-0.888929;-1.53488;-1.41738;0.181851;-0.376858;-0.405962;-1.68472;0.604733;-0.90459;0;0;0;0;0;0;0;0;0;0;1000;1000;1024;1024;1024;930;1024;1024;1024;1;3;0;1300;15;9;0;0;0;0;0;0;0; 
1041;1044;2019/07/17 13:12:36;0;-1;-1;-1;461.583;398.667;124;0;0;0;0;0;0;0;0;0;0;0;0;0;0;606.25;355.75;10.4837;602.139;358.266;0;92;1;-0.871669;-1.5319;-1.42703;-0.883751;-1.53398;-1.42027;0.167445;-0.326271;-0.402701;-1.84234;0.890121;-0.92019;0;0;0;0;0;0;0;0;0;0;1000;1000;1024;1024;1024;930;1024;1024;1024;1;3;0;1300;15;9;0;0;0;0;0;0;0; 
1042;1045;2019/07/17 13:12:36;0;-1;-1;-1;461.583;398.667;125;0;0;0;0;0;0;0;0;0;0;0;0;0;0;605.667;354.333;10.3386;601.218;357.267;0;93;1;-0.881088;-1.5476;-1.45067;-0.882952;-1.53807;-1.42939;0.160382;-0.273098;-0.394931;-1.81701;1.28634;-0.800007;0;0;0;0;0;0;0;0;0;0;1000;1000;1024;1024;1024;930;1024;1024;1024;1;3;0;1300;15;9;0;0;0;0;0;0;0; 
1043;1046;2019/07/17 13:12:36;0;-1;-1;-1;461.583;398.667;126;0;0;0;0;0;0;0;0;0;0;0;0;0;0;603.429;354;10.3404;599.925;356.426;0;94;1;-0.87014;-1.54597;-1.45127;-0.879108;-1.54044;-1.43596;0.161524;-0.223783;-0.385907;-1.63946;1.69591;-0.6;0;0;0;0;0;0;0;0;0;0;1000;1000;1024;1024;1024;930;1024;1024;1024;1;3;0;1300;15;9;0;0;0;0;0;0;0; 
1044;1047;2019/07/17 13:12:36;0;-1;-1;-1;461.583;398.667;127;0;0;0;0;0;0;0;0;0;0;0;0;0;0;602.571;352;10.3421;598.803;355.17;0;95;1;-0.865856;-1.53752;-1.45613;-0.875133;-1.53956;-1.44201;0.173233;-0.170889;-0.372087;-1.3452;2.04334;-0.371284;0;0;0;0;0;0;0;0;0;0;1000;1000;1024;1024;1024;930;1024;1024;1024;1;3;0;1300;15;9;0;0;0;0;0;0;0; 
1045;1048;2019/07/17 13:12:36;0;-1;-1;-1;461.583;398.667;128;0;0;0;0;0;0;0;0;0;0;0;0;0;0;600;351.429;10.2694;597.255;354.07;0;96;1;-0.859495;-1.54605;-1.46791;-0.870441;-1.54151;-1.44978;0.185984;-0.141911;-0.377004;-0.993135;2.21796;-0.236109;0;0;0;0;0;0;0;0;0;0;1000;1000;1024;1024;1024;930;1024;1024;1024;1;3;0;1300;15;9;0;0;0;0;0;0;0; 
1046;1049;2019/07/17 13:12:36;0;-1;-1;-1;461.583;398.667;129;0;0;0;0;0;0;0;0;0;0;0;0;0;0;598.25;350.25;10.1892;595.659;352.894;0;97;1;-0.857692;-1.55332;-1.48252;-0.866617;-1.54505;-1.4596;0.200678;-0.125777;-0.394769;-0.520713;2.33326;-0.0969731;0;0;0;0;0;0;0;0;0;0;1000;1000;1024;1024;1024;930;1024;1024;1024;1;3;0;1300;15;9;0;0;0;0;0;0;0; 
1047;1050;2019/07/17 13:12:36;0;-1;-1;-1;461.583;398.667;130;0;0;0;0;0;0;0;0;0;0;0;0;0;0;598;349.429;10.1274;594.506;351.777;0;98;1;-0.861691;-1.55936;-1.49369;-0.865139;-1.54934;-1.46983;0.194719;-0.136796;-0.434713;-0.203528;2.15647;-0.185997;0;0;0;0;0;0;0;0;0;0;1000;1000;1024;1024;1024;930;1024;1024;1024;1;3;0;1300;15;9;0;0;0;0;0;0;0; 
1048;1051;2019/07/17 13:12:36;0;-1;-1;-1;461.583;398.667;131;0;0;0;0;0;0;0;0;0;0;0;0;0;0;595.6;349.2;9.97843;592.988;350.896;0;99;1;-0.862553;-1.58167;-1.5166;-0.864363;-1.55904;-1.48386;0.191051;-0.165819;-0.478295;0.000335857;1.72222;-0.444441;0;0;0;0;0;0;0;0;0;0;1000;1000;1024;1024;1024;930;1024;1024;1024;1;3;0;1300;15;9;0;0;0;0;0;0;0; 
1049;1052;2019/07/17 13:12:36;0;-1;-1;-1;-1;-1;132;0;0;0;0;0;0;0;0;0;0;0;0;0;0;595;348;10.1173;591.779;349.877;0;100;1;-0.847757;-1.55494;-1.49891;-0.859381;-1.55781;-1.48837;0.193395;-0.168848;-0.496263;0.127451;1.25267;-0.707279;0;0;0;0;0;0;0;0;0;0;1000;1000;1024;1024;1024;930;1024;1024;1024;1;3;0;1300;15;9;0;0;0;0;0;0;0; 
1050;1053;2019/07/17 13:12:36;0;-1;-1;-1;-1;-1;133;0;0;0;0;0;0;0;0;0;0;0;0;0;0;592.8;348.4;10.0309;590.281;349.27;0;101;1;-0.844112;-1.57001;-1.51076;-0.8548;-1.56147;-1.49509;0.197217;-0.188785;-0.509704;0.17223;0.680149;-0.973826;0;0;0;0;0;0;0;0;0;0;1000;1000;1024;1024;1024;930;1024;1024;1024;1;3;0;1300;15;9;0;0;0;0;0;0;0; 
1051;1054;2019/07/17 13:12:36;0;-1;-1;-1;-1;-1;134;0;0;0;0;0;0;0;0;0;0;0;0;0;0;591.429;348;9.96021;588.838;348.709;0;102;1;-0.843232;-1.57946;-1.52255;-0.85133;-1.56687;-1.50333;0.194637;-0.214518;-0.519631;0.137887;0.11819;-1.15376;0;0;0;0;0;0;0;0;0;0;1000;1000;1024;1024;1024;930;1024;1024;1024;1;3;0;1300;15;9;0;0;0;0;0;0;0; 
1052;1055;2019/07/17 13:12:36;0;-1;-1;-1;-1;-1;135;0;0;0;0;0;0;0;0;0;0;0;0;0;0;589;349;9.99906;587.096;348.628;0;103;1;-0.827837;-1.57756;-1.514;-0.844282;-1.57007;-1.50653;0.205958;-0.228613;-0.499152;0.103814;-0.339676;-1.10903;0;0;0;0;0;0;0;0;0;0;1000;1000;1024;1024;1024;930;1024;1024;1024;1;3;0;1300;15;9;0;0;0;0;0;0;0; 
1053;1056;2019/07/17 13:12:36;0;-1;-1;-1;-1;-1;136;0;0;0;0;0;0;0;0;0;0;0;0;0;0;587;349;9.87294;585.274;348.577;0;104;1;-0.828304;-1.59771;-1.53334;-0.839489;-1.57836;-1.51457;0.22599;-0.253035;-0.478135;0.187141;-0.66791;-0.838788;0;0;0;0;0;0;0;0;0;0;1000;1000;1024;1024;1024;930;1024;1024;1024;1;3;0;1300;15;9;0;0;0;0;0;0;0; 
1054;1057;2019/07/17 13:12:36;0;-1;-1;-1;-1;-1;137;0;0;0;0;0;0;0;0;0;0;0;0;0;0;585.6;349.2;9.97609;583.586;348.611;0;105;1;-0.812736;-1.58204;-1.51695;-0.831463;-1.57947;-1.51529;0.266956;-0.233371;-0.412357;0.41535;-0.67046;-0.240004;0;0;0;0;0;0;0;0;0;0;1000;1000;1024;1024;1024;930;1024;1024;1024;1;3;0;1300;15;9;0;0;0;0;0;0;0; 
1055;1058;2019/07/17 13:12:36;0;-1;-1;-1;-1;-1;138;0;0;0;0;0;0;0;0;0;0;0;0;0;0;584;351;9.99067;581.93;349.217;0;106;1;-0.803559;-1.58736;-1.50999;-0.823092;-1.58184;-1.5137;0.305068;-0.23595;-0.348518;0.695088;-0.670192;0.445896;0;0;0;0;0;0;0;0;0;0;1000;1000;1024;1024;1024;930;1024;1024;1024;1;3;0;1300;15;9;0;0;0;0;0;0;0; 
1056;1059;2019/07/17 13:12:36;0;-1;-1;-1;-1;-1;139;0;0;0;0;0;0;0;0;0;0;0;0;0;0;582;351;10.0619;580.17;349.663;0;107;1;-0.787955;-1.57613;-1.49931;-0.812551;-1.58012;-1.50938;0.351732;-0.216048;-0.266159;1.03398;-0.510968;1.23994;0;0;0;0;0;0;0;0;0;0;1000;1000;1024;1024;1024;930;1024;1024;1024;1;3;0;1300;15;9;0;0;0;0;0;0;0; 
1057;1060;2019/07/17 13:12:36;0;462.256;381.763;8.60968;462.256;382.05;0;1;1;-0.226847;-1.99336;-1.65801;-0.226847;-1.99336;-1.65801;0;0;0;0;0;0;580;352;9.91303;578.335;350.311;0;108;1;-0.789717;-1.60407;-1.51916;-0.805701;-1.58731;-1.51231;0.393223;-0.211246;-0.195569;1.41328;-0.293516;2.03784;1;-0.226847;-1.99336;-1.5;0;0;0;-4.31009;-41.2546;-4.31009;1000;1000;1024;1024;1024;930;1024;1024;1024;1;3;0;1300;15;9;17.6989;0;0;0;-0.453694;-2.59137;-2.55; 
1058;1061;2019/07/17 13:12:36;0;462.077;380.872;8.66267;462.239;382.23;0;2;1;-0.224429;-1.97681;-1.65057;-0.226122;-1.98839;-1.65578;0;0;0;0;0;0;577;353;9.99492;576.125;351.103;0;109;1;-0.76827;-1.59517;-1.50407;-0.794471;-1.58967;-1.50984;0.434813;-0.204973;-0.130568;1.76172;-0.0817246;2.69435;1;-0.226122;-1.98839;-1.5;0;0;0;-4.29631;-41.1518;-4.29631;1000;1000;1024;1024;1024;930;1024;1024;1024;1;3;0;1300;15;9;0.0166965;0;0;0;-0.452243;-2.58491;-2.55; 
1059;1062;2019/07/17 13:12:36;0;461.885;380.173;8.66788;462.182;382.187;0;3;1;-0.223188;-1.97221;-1.65171;-0.225242;-1.98354;-1.65456;0;0;0;0;0;0;576;353;9.97803;574.283;351.681;0;110;1;-0.764569;-1.59787;-1.50662;-0.785501;-1.59213;-1.50887;0.476444;-0.17793;-0.0555982;2.05702;0.250833;3.30367;1;-0.225242;-1.98354;-1.5;0;0;0;-4.27959;-41.0513;-4.27959;1000;1000;1024;1024;1024;930;1024;1024;1024;1;3;0;1300;15;9;0.0166978;0;0;0;-0.450484;-2.5786;-2.55; 
1060;1063;2019/07/17 13:12:36;0;461.931;379.827;8.67241;462.13;381.983;0;4;1;-0.223336;-1.96949;-1.6519;-0.22467;-1.97932;-1.65376;0;0;0;0;0;0;574;354;9.94945;572.389;352.419;0;111;1;-0.756734;-1.60671;-1.5083;-0.776871;-1.5965;-1.5087;0.503836;-0.174779;-0.0070713;2.18;0.384441;3.60038;1;-0.22467;-1.97932;-1.5;0;0;0;-4.26873;-40.9641;-4.26873;1000;1000;1024;1024;1024;930;1024;1024;1024;1;3;0;1300;15;9;0.0166965;0;0;0;-0.44934;-2.57312;-2.55; 
1061;1064;2019/07/17 13:12:36;0;461.9;378.85;8.66599;462.075;381.525;0;5;1;-0.223325;-1.96617;-1.65609;-0.224267;-1.97538;-1.65446;0;0;0;0;0;0;573;355;9.84832;570.776;353.273;0;112;1;-0.759438;-1.62752;-1.52111;-0.771641;-1.60581;-1.51242;0.507727;-0.200576;0.000840532;2.11716;0.371902;3.55511;1;-0.224267;-1.97538;-1.5;0;0;0;-4.26106;-40.8824;-4.26106;1000;1000;1024;1024;1024;930;1024;1024;1024;1;3;0;1300;15;9;0.0166978;0;0;0;-0.448533;-2.56799;-2.55; 
1062;1065;2019/07/17 13:12:36;0;461.641;378.35;8.66569;461.964;380.997;0;6;1;-0.221841;-1.96379;-1.65767;-0.223539;-1.9719;-1.65542;0;0;0;0;0;0;571;355;9.96452;569.048;353.891;0;113;1;-0.740567;-1.60854;-1.50337;-0.762319;-1.60663;-1.50971;0.505196;-0.226157;-0.000806969;1.88303;0.182777;3.19254;1;-0.223539;-1.9719;-1.5;0;0;0;-4.24724;-40.8105;-4.24724;1000;1000;1024;1024;1024;930;1024;1024;1024;1;3;0;1300;15;9;0.0166965;0;0;0;-0.447078;-2.56347;-2.55; 
1063;1066;2019/07/17 13:12:36;0;461.931;377.827;8.69128;461.954;380.431;0;7;1;-0.222851;-1.95546;-1.65438;-0.223333;-1.96697;-1.65511;0;0;0;0;0;0;569;357;9.90921;567.237;354.973;0;114;1;-0.734629;-1.62607;-1.50644;-0.754012;-1.61246;-1.50873;0.509494;-0.236111;0.0138272;1.59405;0.0103896;2.75158;1;-0.223333;-1.96697;-1.5;0;0;0;-4.24332;-40.7084;-4.24332;1000;1000;1024;1024;1024;930;1024;1024;1024;1;3;0;1300;15;9;0.0166978;0;0;0;-0.446665;-2.55706;-2.55; 
1064;1067;2019/07/17 13:12:36;0;461.822;377.689;8.67787;461.917;379.952;0;8;1;-0.222572;-1.95781;-1.65735;-0.223104;-1.96422;-1.65578;0.0330951;0.254582;0.0173342;0.13214;1.01648;0.0692112;567;357;9.88744;565.364;355.754;0;115;1;-0.726153;-1.62965;-1.50976;-0.745654;-1.61761;-1.50904;0.500608;-0.253259;0.0115038;1.21913;-0.186557;2.2182;1;-0.223104;-1.96422;-1.5;0;0;0;-3.92458;-36.5985;-3.92458;1000;1000;1024;1024;1024;930;1024;1024;1024;1;3;0;1300;15;9;0.0166965;0;0;0;-0.446209;-2.55349;-2.55; 
1065;1068;2019/07/17 13:12:36;0;461.567;376.775;8.77628;461.818;379.332;0;9;1;-0.218623;-1.93144;-1.64151;-0.22176;-1.95439;-1.6515;0.0337589;0.269144;0.0225997;0.214075;1.68451;0.131762;564.667;357.333;9.90832;563.341;356.42;0;116;1;-0.712872;-1.62764;-1.50569;-0.73582;-1.62062;-1.50803;0.498726;-0.265731;0.0102607;0.820445;-0.462496;1.59387;1;-0.22176;-1.95439;-1.5;0;0;0;-3.89273;-36.1632;-3.89273;1000;1000;1024;1024;1024;930;1024;1024;1024;1;3;0;1300;15;9;0.0166978;0;0;0;-0.44352;-2.5407;-2.55; 
1066;1069;2019/07/17 13:12:36;0;461.212;376.234;8.75914;461.645;378.712;0;10;1;-0.217031;-1.9326;-1.64635;-0.220341;-1.94785;-1.64996;0.0375393;0.287142;0.0287405;0.27833;2.15719;0.193811;563;357;9.93747;561.423;356.789;0;117;1;-0.702411;-1.62144;-1.50216;-0.725797;-1.62087;-1.50627;0.503157;-0.256722;0.0158614;0.489559;-0.604672;1.04789;1;-0.220341;-1.94785;-1.5;0;0;0;-3.82986;-35.7414;-3.82986;1000;1000;1024;1024;1024;930;1024;1024;1024;1;3;0;1300;15;9;0.0166965;0;0;0;-0.440683;-2.53221;-2.55; 
1067;1070;2019/07/17 13:12:36;0;461.224;375.872;8.81294;461.52;378.143;0;11;1;-0.215772;-1.91907;-1.63738;-0.218971;-1.93922;-1.64618;0.0436693;0.316663;0.0502792;0.341359;2.55867;0.317039;560;357;9.95974;559.154;357.049;0;118;1;-0.685811;-1.61782;-1.4988;-0.713801;-1.61995;-1.50403;0.532831;-0.210514;0.043033;0.393968;-0.402485;0.797194;1;-0.218971;-1.93922;-1.5;0;0;0;-3.74558;-35.0927;-3.74558;1000;1000;1024;1024;1024;930;1024;1024;1024;1;3;0;1300;15;9;0.0166978;0;0;0;-0.437941;-2.52098;-2.55; 
1068;1071;2019/07/17 13:12:36;0;461.162;375.559;8.72458;461.41;377.627;0;12;1;-0.217605;-1.93698;-1.65492;-0.218561;-1.93855;-1.6488;0.0460778;0.323182;0.0565911;0.388792;2.82558;0.416177;557;357;9.84257;556.633;357.228;0;119;1;-0.678765;-1.63708;-1.51664;-0.70329;-1.62509;-1.50781;0.555381;-0.200029;0.0333862;0.436754;-0.137169;0.614839;1;-0.218561;-1.93855;-1.5;0;0;0;-3.71492;-34.9751;-3.71492;1000;1000;1024;1024;1024;930;1024;1024;1024;1;3;0;1300;15;9;0.0166968;0;0;0;-0.437122;-2.52011;-2.55; 
1069;1072;2019/07/17 13:12:36;0;461.025;374.475;8.81401;461.289;376.927;0;13;1;-0.214621;-1.91212;-1.64136;-0.217379;-1.93062;-1.64657;0.051419;0.339052;0.0680358;0.438578;3.0491;0.521356;555.333;355.333;9.84032;554.354;356.818;0;120;1;-0.670469;-1.63027;-1.52145;-0.693444;-1.62664;-1.5119;0.575058;-0.176662;0.00734817;0.523828;0.155061;0.343035;1;-0.217379;-1.93062;-1.5;0;0;0;-3.64172;-34.5584;-3.64172;1000;1000;1024;1024;1024;930;1024;1024;1024;1;3;0;1300;15;9;0.0166975;0;0;0;-0.434758;-2.5098;-2.55; 
1070;1073;2019/07/17 13:12:36;0;461.167;373.944;8.9321;461.242;376.251;0;14;1;-0.212575;-1.88432;-1.62123;-0.215938;-1.91673;-1.63897;0.059467;0.393052;0.107946;0.368443;2.38233;0.674602;553.6;354.8;9.90126;552.231;356.343;0;121;1;-0.657607;-1.61796;-1.51351;-0.682693;-1.62404;-1.51239;0.59642;-0.131646;-0.00896049;0.696845;0.578599;0.124113;1;-0.215938;-1.91673;-1.5;0;0;0;-3.53788;-33.4112;-3.53788;1000;1000;1024;1024;1024;930;1024;1024;1024;1;3;0;1300;15;9;0.0166968;0;0;0;-0.431875;-2.49175;-2.55; 
1071;1074;2019/07/17 13:12:36;0;460.974;373.86;8.85649;461.151;375.722;0;15;1;-0.213302;-1.9;-1.63532;-0.215147;-1.91171;-1.63788;0.0620847;0.406226;0.119169;0.334164;1.97674;0.790338;551;355;9.97661;549.945;356.054;0;122;1;-0.639636;-1.60659;-1.50155;-0.669776;-1.6188;-1.50913;0.621545;-0.0717274;-0.00977423;0.908483;1.12176;-0.00552564;1;-0.215147;-1.91171;-1.5;0;0;0;-3.49799;-33.0976;-3.49799;1000;1000;1024;1024;1024;930;1024;1024;1024;1;3;0;1300;15;9;0.0166975;0;0;0;-0.430294;-2.48522;-2.55; 
1072;1075;2019/07/17 13:12:36;0;461;373.657;8.842;461.092;375.269;0;16;1;-0.2138;-1.90215;-1.63861;-0.214743;-1.90884;-1.6381;0.0596038;0.399491;0.118861;0.288596;1.63462;0.83403;549.429;352;9.80289;547.87;354.882;0;123;1;-0.642972;-1.62209;-1.53623;-0.661735;-1.61979;-1.51726;0.628708;-0.0387337;-0.0497509;1.04637;1.54341;-0.265285;1;-0.214743;-1.90884;-1.5;0;0;0;-3.51388;-33.1455;-3.51388;1000;1000;1024;1024;1024;930;1024;1024;1024;1;3;0;1300;15;9;0.0166968;0;0;0;-0.429486;-2.48149;-2.55; 
1073;1076;2019/07/17 13:12:36;0;461.023;372.939;9.02467;461.056;374.717;0;17;1;-0.209602;-1.86027;-1.60754;-0.213201;-1.89427;-1.62893;0.0587996;0.419149;0.14022;0.233569;1.38997;0.859529;547;351;9.87412;545.675;353.709;0;124;1;-0.626061;-1.6061;-1.52781;-0.651033;-1.61568;-1.52043;0.627841;-0.00619253;-0.0953236;1.00717;1.74184;-0.711587;1;-0.213201;-1.89427;-1.5;0;0;0;-3.49222;-32.531;-3.49222;1000;1000;1024;1024;1024;930;1024;1024;1024;1;3;0;1300;15;9;0.0166975;0;0;0;-0.426401;-2.46255;-2.55; 
1074;1077;2019/07/17 13:12:36;0;460.776;372.128;8.96073;460.957;374.064;0;18;1;-0.209721;-1.86971;-1.62139;-0.212157;-1.8869;-1.62667;0.0608493;0.457682;0.172517;0.19912;1.37101;0.978579;545;350;9.98847;543.53;352.537;0;125;1;-0.608902;-1.58347;-1.51296;-0.638393;-1.60602;-1.51819;0.635819;0.0724263;-0.0986175;0.925466;2.13294;-0.954003;1;-0.212157;-1.8869;-1.5;0;0;0;-3.45291;-31.7651;-3.45291;1000;1000;1024;1024;1024;930;1024;1024;1024;1;3;0;1300;15;9;0.0166968;0;0;0;-0.424314;-2.45297;-2.55; 
1075;1078;2019/07/17 13:12:36;0;460.86;372;8.97901;460.909;373.543;0;19;1;-0.209758;-1.8653;-1.61847;-0.211437;-1.88042;-1.62421;0.0602329;0.475021;0.192805;0.154664;1.3655;1.08532;543.667;347.667;9.9884;541.635;350.942;0;126;1;-0.602245;-1.57358;-1.51913;-0.627549;-1.59629;-1.51847;0.644591;0.16466;-0.0853829;0.832904;2.64256;-0.942649;1;-0.211437;-1.88042;-1.5;0;0;0;-3.44509;-31.3549;-3.44509;1000;1000;1024;1024;1024;930;1024;1024;1024;1;3;0;1300;15;9;0.0166975;0;0;0;-0.422874;-2.44455;-2.55; 
1076;1079;2019/07/17 13:12:36;0;460.838;371.721;8.95377;460.868;373.073;0;20;1;-0.210227;-1.86924;-1.62385;-0.211074;-1.87707;-1.6241;0.0555575;0.443369;0.175048;0.0771886;1.0202;0.919115;542.333;345.667;9.91507;539.921;349.151;0;127;1;-0.599989;-1.57668;-1.53568;-0.619281;-1.5904;-1.52363;0.63994;0.233086;-0.0961386;0.673504;3.0418;-0.913665;1;-0.211074;-1.87707;-1.5;0;0;0;-3.48261;-31.7894;-3.48261;1000;1000;1024;1024;1024;930;1024;1024;1024;1;3;0;1300;15;9;0.0166968;0;0;0;-0.422149;-2.44019;-2.55; 
1077;1080;2019/07/17 13:12:36;0;460.657;371.521;9.00888;460.784;372.666;0;21;1;-0.207942;-1.85687;-1.6145;-0.210134;-1.87101;-1.62122;0.0533478;0.428539;0.171521;0.0114291;0.701211;0.760498;540.333;343.667;9.94703;538.125;347.219;0;128;1;-0.588028;-1.56309;-1.53605;-0.609905;-1.58221;-1.52736;0.623009;0.285954;-0.130444;0.409948;3.25319;-1.03;1;-0.210134;-1.87101;-1.5;0;0;0;-3.48575;-31.9;-3.48575;1000;1000;1024;1024;1024;930;1024;1024;1024;1;3;0;1300;15;9;0.0166978;0;0;0;-0.420269;-2.43231;-2.55; 
1078;1081;2019/07/17 13:12:36;0;460.422;370.338;8.93811;460.652;372.004;0;22;1;-0.208274;-1.86596;-1.63078;-0.209576;-1.86949;-1.62409;0.0526376;0.414239;0.158837;-0.0209567;0.479611;0.615914;539.667;341.667;10.002;536.696;345.19;0;129;1;-0.581469;-1.54602;-1.53287;-0.601374;-1.57135;-1.52901;0.614806;0.364958;-0.125184;0.190461;3.56373;-0.919179;1;-0.0715197;-0.326988;0.00162601;-0.138057;-1.5425;-1.62571;-6.69947;-0.172676;-6.69947;1000;1065;816;1147;1024;930;1024;1024;1024;1;3;0;1300;15;9;0.0166965;0;0;0;-0.143039;-0.425085;0.00276423; 
1079;1082;2019/07/17 13:12:36;0;460.314;370.078;9.02764;460.523;371.439;0;23;1;-0.20561;-1.84624;-1.61536;-0.208387;-1.86252;-1.62147;0.0508045;0.375336;0.125078;-0.0444966;0.112834;0.30909;538.571;338;9.93586;535.394;342.561;0;130;1;-0.579841;-1.54068;-1.55281;-0.594914;-1.56215;-1.53615;0.592946;0.432698;-0.137893;-0.0250497;3.89059;-0.721476;1;0.371454;-0.321831;-0.0686613;-0.579841;-1.54068;-1.55281;6.28597;-0.685268;6.28597;1000;1066;1210;1072;1024;930;1024;1024;1024;1;3;0;1300;15;9;0.0166978;0;0;0;0.742908;-0.41838;-0.116724; 
1080;1083;2019/07/17 13:12:36;0;460;369.714;9.0965;460.333;370.914;0;24;1;-0.202333;-1.83056;-1.60419;-0.20657;-1.85293;-1.61629;0.0527881;0.36085;0.1165;-0.058884;-0.318926;-0.0382086;537;337;10.0178;534.032;340.351;0;131;1;-0.567271;-1.52385;-1.54274;-0.586621;-1.55066;-1.53813;0.562478;0.480635;-0.162353;-0.307859;3.96421;-0.687364;1;0.3607;-0.329076;-0.0735455;-0.567271;-1.52385;-1.54274;6.33902;-1.06582;6.33902;1000;1077;1220;1063;1024;930;1024;1024;1024;1;3;0;1300;15;9;0.0166965;0;0;0;0.721401;-0.427799;-0.125027; 
1081;1084;2019/07/17 13:12:36;0;460;369.447;9.08116;460.195;370.447;0;25;1;-0.202675;-1.83241;-1.60767;-0.205402;-1.84677;-1.6137;0.0557711;0.350866;0.111846;-0.0531452;-0.687074;-0.346172;536;334.571;10.154;532.808;337.994;0;132;1;-0.554747;-1.49328;-1.52835;-0.577059;-1.53345;-1.53519;0.539077;0.539281;-0.164189;-0.605999;3.87427;-0.727064;1;0.349345;-0.353494;-0.0853523;-0.554747;-1.49328;-1.52835;6.09841;-1.73013;6.09841;1000;1087;1222;1042;1024;930;1024;1024;1024;1;3;0;1300;15;9;0.0166978;0;0;0;0.698691;-0.459543;-0.145099; 
1082;1085;2019/07/17 13:12:36;0;459.918;368.857;9.09228;460.071;369.925;0;26;1;-0.201979;-1.82742;-1.60742;-0.204375;-1.84097;-1.61182;0.0602119;0.35466;0.116156;-0.013303;-0.766435;-0.442846;536;331.429;10.0006;532.003;335.306;0;133;1;-0.563254;-1.50286;-1.56007;-0.572918;-1.52427;-1.54266;0.508561;0.587612;-0.174471;-0.888155;3.74008;-0.748997;1;0.35888;-0.338104;-0.0517452;-0.563254;-1.50286;-1.56007;6.77962;-1.3512;6.77962;1000;1094;1252;1070;1024;930;1024;1024;1024;1;3;0;1300;15;9;0.0166965;0;0;0;0.717759;-0.439535;-0.0879668; 
1083;1086;2019/07/17 13:12:36;0;459.469;368.122;9.09625;459.843;369.317;0;27;1;-0.199428;-1.8232;-1.60885;-0.202891;-1.83564;-1.61093;0.0650498;0.354022;0.110806;0.0387413;-0.757392;-0.50813;535;329;10.0738;531.179;332.61;0;134;1;-0.55421;-1.48174;-1.5551;-0.567305;-1.51151;-1.54639;0.475225;0.634847;-0.180669;-1.12295;3.63707;-0.649933;1;0.35132;-0.353902;-0.0558286;-0.55421;-1.48174;-1.5551;6.86102;-1.68832;6.86102;1000;1101;1263;1060;1024;930;1024;1024;1024;1;3;0;1300;15;9;0.0166978;0;0;0;0.702639;-0.460072;-0.0949086; 
1084;1087;2019/07/17 13:12:37;0;459.429;367.878;9.06102;459.665;368.8;0;28;1;-0.199978;-1.82914;-1.61581;-0.202017;-1.83369;-1.61239;0.0692125;0.355367;0.113185;0.089424;-0.689496;-0.487156;535.667;327.667;10.1234;530.873;330.26;0;135;1;-0.55478;-1.46889;-1.55095;-0.563548;-1.49873;-1.54776;0.436165;0.670895;-0.18324;-1.38703;3.40376;-0.621761;1;0.352763;-0.364797;-0.0614454;-0.55478;-1.46889;-1.55095;7.18361;-1.89239;7.18361;1000;1109;1282;1056;1024;930;1024;1024;1024;1;3;0;1300;15;9;0.0166965;0;0;0;0.705526;-0.474236;-0.104457; 
1085;1088;2019/07/17 13:12:37;0;459.149;367.702;9.1253;459.451;368.371;0;29;1;-0.19704;-1.81544;-1.60494;-0.200524;-1.82822;-1.61016;0.0729208;0.350173;0.113088;0.14196;-0.514166;-0.340164;535.429;324;9.98641;530.65;327.422;0;136;1;-0.561201;-1.47349;-1.5819;-0.562844;-1.49115;-1.558;0.389746;0.686017;-0.19718;-1.64353;3.05368;-0.609769;1;0.360677;-0.354727;-0.0282528;-0.561201;-1.47349;-1.5819;7.99382;-1.76668;7.99382;1000;1117;1316;1092;1024;930;1024;1024;1024;1;3;0;1300;15;9;0.0166978;0;0;0;0.721355;-0.461145;-0.0480298; 
1086;1089;2019/07/17 13:12:37;0;459.156;367.289;9.14212;459.299;367.933;0;30;1;-0.196714;-1.81019;-1.60318;-0.199381;-1.82281;-1.60806;0.0724582;0.330377;0.100688;0.163713;-0.430172;-0.267228;534.571;322;10.0642;530.289;324.764;0;137;1;-0.552612;-1.45367;-1.57491;-0.559774;-1.47991;-1.56307;0.34104;0.694108;-0.217905;-1.87026;2.68454;-0.587663;1;0.353231;-0.369133;-0.0331525;-0.552612;-1.45367;-1.57491;8.18057;-2.37997;8.18057;1000;1126;1329;1091;1024;930;1024;1024;1024;1;3;0;1300;15;9;0.0166965;0;0;0;0.706462;-0.479872;-0.0563592; 
1087;1090;2019/07/17 13:12:37;0;459.149;365.957;9.18358;459.188;367.202;0;31;1;-0.19579;-1.79587;-1.59976;-0.198304;-1.81473;-1.60557;0.0718155;0.326177;0.0928768;0.162289;-0.356678;-0.236077;535.778;318.667;10.082;530.483;321.815;0;138;1;-0.557607;-1.4371;-1.58085;-0.559124;-1.46707;-1.5684;0.276232;0.681504;-0.26334;-2.17162;2.17858;-0.748481;1;0.359304;-0.377626;-0.0247266;-0.557607;-1.4371;-1.58085;8.92953;-2.62261;8.92953;1000;1139;1360;1114;1024;930;1024;1024;1024;1;3;0;1300;15;9;0.0166978;0;0;0;0.718608;-0.490914;-0.0420353; 
1088;1091;2019/07/17 13:12:37;0;459.149;365.957;9.13376;459.111;366.674;0;32;1;-0.196858;-1.80567;-1.60849;-0.19787;-1.81201;-1.60645;0.0690616;0.311326;0.0771715;0.132708;-0.387031;-0.2973;537.2;316.4;9.97986;531.144;318.998;0;139;1;-0.570427;-1.44219;-1.60302;-0.562515;-1.4596;-1.57879;0.207273;0.667104;-0.30226;-2.50592;1.62453;-0.95931;1;0.372557;-0.36982;-0.00343001;-0.570427;-1.44219;-1.60302;9.85066;-2.69748;9.85066;1000;1152;1397;1139;1024;930;1024;1024;1024;1;3;0;1300;15;9;0.0166968;0;0;0;0.745115;-0.480766;-0.00583102; 
1089;1092;2019/07/17 13:12:37;0;458.889;365.422;9.16946;458.975;366.128;0;33;1;-0.194676;-1.79617;-1.60376;-0.196912;-1.80726;-1.60564;0.0653089;0.30011;0.0674023;0.0806593;-0.447473;-0.351679;537.75;313.75;10.1344;531.864;316.16;0;140;1;-0.564436;-1.40912;-1.58546;-0.563091;-1.44446;-1.58079;0.141189;0.667987;-0.318707;-2.83725;1.10704;-1.12673;1;0.367524;-0.39814;-0.0201795;-0.564436;-1.40912;-1.58546;10.1972;-3.46215;10.1972;1000;1166;1416;1132;1024;930;1024;1024;1024;1;3;0;1300;15;9;0.0166975;0;0;0;0.735048;-0.517582;-0.0343052; 
1090;1093;2019/07/17 13:12:37;0;458.93;364.419;9.21586;458.893;365.422;0;34;1;-0.19392;-1.78251;-1.59856;-0.196014;-1.79983;-1.60352;0.0631522;0.315246;0.0758789;0.0241986;-0.428674;-0.35996;540;310.571;10.0549;533.164;313.14;0;141;1;-0.580064;-1.40686;-1.60633;-0.568183;-1.43318;-1.58845;0.0662061;0.662498;-0.353706;-3.17948;0.630696;-1.35665;1;0.38405;-0.392969;0.00281179;-0.580064;-1.40686;-1.60633;11.3532;-3.11417;11.3532;1000;1177;1459;1169;1024;930;1024;1024;1024;1;3;0;1300;15;9;0.0166968;0;0;0;0.7681;-0.51086;0.00478004; 
1091;1094;2019/07/17 13:12:37;0;459;364;9.25667;458.857;364.783;0;35;1;-0.193441;-1.77273;-1.5927;-0.195242;-1.7917;-1.60027;0.0589793;0.334932;0.0849883;-0.0411458;-0.318058;-0.328173;540;308.571;10.0926;534.162;310.367;0;142;1;-0.577898;-1.39321;-1.60555;-0.571098;-1.42119;-1.59358;0.00676871;0.676846;-0.354291;-3.4368;0.341799;-1.44129;1;0.382656;-0.398489;0.00528193;-0.577898;-1.39321;-1.60555;11.8218;-2.91501;11.8218;1000;1181;1479;1178;1024;930;1024;1024;1024;1;3;0;1300;15;9;0.0166975;0;0;0;0.765312;-0.518036;0.00897927; 
1092;1095;2019/07/17 13:12:37;0;459.273;363.182;9.28496;458.921;364.069;0;36;1;-0.194318;-1.7636;-1.59017;-0.194965;-1.78327;-1.59724;0.0530197;0.358814;0.0941917;-0.1023;-0.0772916;-0.222843;542.25;305.75;10.0834;535.655;307.516;0;143;1;-0.589559;-1.38263;-1.61439;-0.576636;-1.40962;-1.59983;-0.0632629;0.68675;-0.359315;-3.67634;0.175702;-1.42938;1;0.394594;-0.400644;0.0171499;-0.589559;-1.38263;-1.61439;12.7019;-2.57941;12.7019;1000;1187;1511;1193;1024;930;1024;1024;1024;1;3;0;1300;15;9;0.0166968;0;0;0;0.789188;-0.520837;0.0291549; 
1093;1096;2019/07/17 13:12:37;0;459.234;362.213;9.30887;458.957;363.253;0;37;1;-0.193611;-1.75466;-1.58883;-0.194559;-1.77469;-1.59472;0.0467644;0.375156;0.0998452;-0.161403;0.149185;-0.105883;544;303.5;10.0389;537.342;304.792;0;144;1;-0.600874;-1.37927;-1.62747;-0.583908;-1.40052;-1.60812;-0.13691;0.677774;-0.37415;-3.85535;0.0905271;-1.30005;1;0.406316;-0.39542;0.0327457;-0.600874;-1.37927;-1.62747;13.6459;-2.21113;13.6459;1000;1192;1543;1210;1024;930;1024;1024;1024;1;3;0;1300;15;9;0.0166975;0;0;0;0.812631;-0.514046;0.0556677; 
1094;1097;2019/07/17 13:12:37;0;459.783;361.652;9.25986;459.16;362.493;0;38;1;-0.197592;-1.76138;-1.59884;-0.195469;-1.7707;-1.59596;0.0376463;0.390051;0.101795;-0.222275;0.403842;0.0347863;545;300.4;10.0733;538.927;301.892;0;145;1;-0.603773;-1.36151;-1.63001;-0.589867;-1.38881;-1.61469;-0.191355;0.689307;-0.367818;-3.90481;0.142966;-1.04179;1;0.408305;-0.409183;0.0340573;-0.603773;-1.36151;-1.63001;13.9892;-2.25884;13.9892;1000;1193;1553;1204;1024;930;1024;1024;1024;1;3;0;1300;15;9;0.0166968;0;0;0;0.816609;-0.531938;0.0578973; 
1095;1098;2019/07/17 13:12:37;0;460.222;360.4;9.24445;459.449;361.556;0;39;1;-0.200294;-1.75858;-1.60507;-0.196916;-1.76706;-1.59869;0.0225698;0.394524;0.0888273;-0.304012;0.619276;0.106416;546.667;298.667;10.0521;540.644;299.303;0;146;1;-0.613319;-1.35707;-1.63799;-0.596903;-1.37929;-1.62168;-0.249812;0.67377;-0.383942;-3.90403;0.10887;-0.885536;1;0.416402;-0.409986;0.0393007;-0.613319;-1.35707;-1.63799;14.5797;-2.20424;14.5797;1000;1196;1568;1205;1024;930;1024;1024;1024;1;3;0;1300;15;9;0.0166975;0;0;0;0.832805;-0.532981;0.0668112; 
1096;1099;2019/07/17 13:12:37;0;461.064;359.702;9.33267;459.927;360.666;0;40;1;-0.202901;-1.73879;-1.59187;-0.198712;-1.75858;-1.59665;0.00277185;0.401432;0.080731;-0.423491;0.715681;0.0832229;547.333;296.222;10.2238;542.134;296.715;0;147;1;-0.606277;-1.32416;-1.6168;-0.599715;-1.36275;-1.62021;-0.275784;0.685449;-0.357181;-3.70788;0.156961;-0.545198;1;0.407565;-0.434414;0.0201526;-0.606277;-1.32416;-1.6168;14.3611;-2.59984;14.3611;1000;1194;1552;1174;1024;930;1024;1024;1024;1;3;0;1300;15;9;0.0166968;0;0;0;0.81513;-0.564738;0.0342594; 
1097;1100;2019/07/17 13:12:37;0;461.391;358.217;9.32597;460.379;359.559;0;41;1;-0.204799;-1.73329;-1.59721;-0.200538;-1.75099;-1.59682;-0.019445;0.403137;0.0622178;-0.566701;0.701278;-0.0408317;548;293.429;10.0563;543.449;294.002;0;148;1;-0.619681;-1.33444;-1.65104;-0.605705;-1.35426;-1.62946;-0.303415;0.678051;-0.357329;-3.46114;0.0989813;-0.339228;1;0.419143;-0.416548;0.0542278;-0.619681;-1.33444;-1.65104;14.7527;-2.20295;14.7527;1000;1191;1552;1183;1024;930;1024;1024;1024;1;3;0;1300;15;9;0.0168647;0;0;0;0.838286;-0.541513;0.0921873; 
1098;1101;2019/07/17 13:12:37;0;462.714;357.143;9.33239;461.128;358.433;0;42;1;-0.211732;-1.72722;-1.59915;-0.203896;-1.74386;-1.59752;-0.0472671;0.39898;0.0362416;-0.739774;0.580871;-0.255494;549;292;10.118;544.752;291.67;0;149;1;-0.620834;-1.32032;-1.6447;-0.610243;-1.34408;-1.63403;-0.316009;0.668081;-0.35075;-3.08414;-0.0150265;-0.169398;1;0.416938;-0.423536;0.0471811;-0.620834;-1.32032;-1.6447;14.5037;-2.41375;14.5037;1000;1186;1528;1158;1024;930;1024;1024;1024;1;3;0;1300;15;9;0.0166968;0;0;0;0.833875;-0.550597;0.0802079; 
1099;1102;2019/07/17 13:12:37;0;464;356;9.34597;462.079;357.268;0;43;1;-0.218289;-1.71953;-1.60005;-0.208214;-1.73656;-1.59828;-0.0827904;0.391365;0.00756947;-0.96028;0.413133;-0.521115;550;289.429;9.9618;546.035;289.233;0;150;1;-0.635578;-1.33009;-1.67729;-0.617844;-1.33988;-1.64701;-0.324875;0.642528;-0.36548;-2.59972;-0.149505;-0.0670818;1;0.427364;-0.406469;0.0790163;-0.635578;-1.33009;-1.67729;14.5493;-2.18175;14.5493;1000;1180;1508;1167;1024;930;1024;1024;1024;1;3;0;1300;15;9;0.016698;0;0;0;0.854728;-0.52841;0.134328; 
1100;1103;2019/07/17 13:12:37;0;465.067;354.4;9.39779;463.106;355.932;0;44;1;-0.222749;-1.70283;-1.59571;-0.212574;-1.72644;-1.59751;-0.117858;0.411215;-0.00164464;-1.19602;0.332242;-0.724987;550.333;286.333;10.0344;547.088;286.555;0;151;1;-0.632639;-1.3074;-1.67329;-0.622282;-1.33014;-1.6549;-0.324132;0.619397;-0.379564;-2.08908;-0.368365;-0.0870659;1;0.420065;-0.419039;0.0757856;-0.632639;-1.3074;-1.67329;14.0055;-2.12589;14.0055;1000;1167;1469;1162;1024;930;1024;1024;1024;1;3;0;1300;15;9;0.016697;0;0;0;0.840129;-0.544751;0.128836; 
1101;1104;2019/07/17 13:12:37;0;466.651;352.698;9.34843;464.351;354.44;0;45;1;-0.232383;-1.70411;-1.60894;-0.218517;-1.71974;-1.60094;-0.156815;0.435341;-0.00993908;-1.43265;0.362046;-0.82868;551.667;284.333;9.96394;548.29;284.053;0;152;1;-0.643788;-1.30814;-1.69041;-0.628734;-1.32354;-1.66555;-0.321358;0.593872;-0.402613;-1.53863;-0.539495;-0.126663;1;0.425271;-0.411604;0.0894735;-0.643788;-1.30814;-1.69041;13.7089;-1.58791;13.7089;1000;1151;1437;1171;1024;930;1024;1024;1024;1;3;0;1300;15;9;0.0166978;0;0;0;0.850542;-0.535085;0.152105; 
