ID;RS_ID;time;imLx_drone; imLy_drone; disparity_drone; imLx_pred_drone; imLy_pred_drone; n_frames_lost_drone; n_frames_tracking_drone; foundL_drone; posX_drone; posY_drone; posZ_drone; sposX_drone; sposY_drone; sposZ_drone; svelX_drone; svelY_drone; svelZ_drone; saccX_drone; saccY_drone; saccZ_drone; imLx_insect; imLy_insect; disparity_insect; imLx_pred_insect; imLy_pred_insect; n_frames_lost_insect; n_frames_tracking_insect; foundL_insect; posX_insect; posY_insect; posZ_insect; sposX_insect; sposY_insect; sposZ_insect; svelX_insect; svelY_insect; svelZ_insect; saccX_insect; saccY_insect; saccZ_insect; valid; posErrX; posErrY; posErrZ; velX; velY; velZ; accX; accY; accZ; hoverthrottle; autoThrottle; autoRoll; autoPitch; autoYaw; joyThrottle; joyRoll; joyPitch; joyYaw; joyArmSwitch; joyModeSwitch; joyTakeoffSwitch; throttleP; throttleI; throttleD; dt; dx; dy; dz; velx_sp; vely_sp; velz_sp;
1070;1089;2019/06/20 10:35:00;419.304;364.696;8.37467;418.783;359.082;0;10;1;0.0227092;-2.00296;-1.71254;0.0267091;-2.00634;-1.70862;-0.0302983;-0.0627043;-0.15294;-0.183614;-0.630663;-1.22184;376;280;11.5148;380.097;279.281;0;30;1;0.204177;-1.14966;-2.55346;0.234891;-1.13259;-2.53173;-1.15876;-0.362191;0.26484;0.074774;-5.76421;8.75162;1;0.0267091;-2.00634;-1.5;0;0;0;0.20449;-30.9979;0.20449;900;900;1024;1024;1024;204;1024;1024;1024;1;3;0;1900;50;35;0.0166836;0;0;0;0.0507474;-3.81204;-2.85; 
1071;1090;2019/06/20 10:35:00;419.214;364.357;8.39375;419.352;358.737;0;11;1;0.0231929;-1.99672;-1.70975;0.0256543;-2.00345;-1.70896;-0.0399018;-0.0196977;-0.135803;-0.26961;-0.457107;-1.27576;379;283;11.5754;380.448;281.732;0;31;1;0.190175;-1.15446;-2.56812;0.221477;-1.13915;-2.54265;-1.09003;-0.418527;0.336888;0.927692;-5.53394;8.24297;1;0.0256543;-2.00345;-1.5;0;0;0;0.0884136;-30.61;0.0884136;900;900;1024;1024;1024;204;1024;1024;1024;1;3;0;1900;50;35;0.0166836;0;0;0;0.0487431;-3.80656;-2.85; 
1072;1091;2019/06/20 10:35:00;419.429;363.714;8.39083;419.288;358.336;0;12;1;0.0219266;-1.99422;-1.71244;0.024536;-2.00068;-1.71;-0.0482317;0.0331644;-0.106973;-0.354497;-0.141741;-1.19291;382;287;11.6989;383.195;285.088;0;32;1;0.175372;-1.15655;-2.59257;0.207645;-1.14437;-2.55762;-1.02787;-0.449671;0.411377;1.68238;-5.1581;7.4789;1;0.024536;-2.00068;-1.5;0;0;0;-0.016133;-30.1451;-0.016133;900;900;1024;1024;1024;204;1024;1024;1024;1;3;0;1900;50;35;0.0166836;0;0;0;0.0466184;-3.8013;-2.85; 
1073;1092;2019/06/20 10:35:00;419.5;363.4;8.38652;419.527;357.65;0;13;1;0.021513;-1.99368;-1.71434;0.0236291;-1.99858;-1.7113;-0.0546415;0.0631288;-0.0953908;-0.431039;0.16721;-1.09692;383.333;289.333;11.7351;385.983;289.394;0;33;1;0.169161;-1.16128;-2.60235;0.1961;-1.14944;-2.57104;-0.965925;-0.443232;0.501962;2.27692;-4.41686;6.88235;1;0.0236291;-1.99858;-1.5;0;0;0;-0.0974628;-29.8734;-0.0974628;750;1820;1013;352;1024;204;1024;1024;1024;1;3;0;1900;50;35;0.0166836;0;0;0;0.0448953;-3.7973;-2.85; 
1074;1093;2019/06/20 10:35:00;421.614;359.088;8.39953;419.616;357.302;0;14;1;0.0089206;-1.96916;-1.72572;0.0192165;-1.98975;-1.71563;-0.0739284;0.117799;-0.0979801;-0.511233;1.02007;-0.411538;384;292;11.8736;387.06;291.948;0;34;1;0.164386;-1.15711;-2.62479;0.186586;-1.15174;-2.58717;-0.895;-0.406991;0.597362;2.78424;-3.38795;6.4281;1;-0.14517;-0.842646;-0.34042;0.164386;-1.14711;-1.37521;5.45249;-8.60989;5.45249;750;1043;1070;579;1024;204;1024;1024;1024;1;3;0;1900;50;35;0.0166836;0;0;0;-0.275822;-1.60103;-0.646797; 
1075;1094;2019/06/20 10:35:00;422;358;8.38107;421.807;352.821;0;15;1;0.00664231;-1.96807;-1.73307;0.0154443;-1.98325;-1.72086;-0.096221;0.16871;-0.114433;-0.612669;1.65029;-0.0692067;385;294;11.8456;387.457;294.787;0;35;1;0.160563;-1.1669;-2.62615;0.178779;-1.15629;-2.59886;-0.813823;-0.36812;0.663886;3.26507;-2.27381;5.92078;1;-0.145118;-0.826355;-0.347011;0.160563;-1.1569;-1.37385;4.41877;-8.26596;4.41877;750;1048;1033;576;1024;204;1024;1024;1024;1;3;0;1900;50;35;0.0166836;0;0;0;-0.275725;-1.57008;-0.659322; 
1076;1095;2019/06/20 10:35:00;421.965;357.333;8.38042;422.26;351.6;0;16;1;0.0068518;-1.96491;-1.73537;0.0128665;-1.97775;-1.72521;-0.113047;0.215466;-0.134984;-0.69826;2.10173;0.0302296;387.6;296.8;11.9224;388.104;296.842;0;36;1;0.148646;-1.16918;-2.64142;0.169739;-1.16016;-2.61163;-0.748639;-0.331031;0.717608;3.59785;-1.23977;5.3617;1;-0.13578;-0.818563;-0.366633;0.148646;-1.15918;-1.35858;3.7761;-8.07017;3.7761;750;1066;1010;566;1024;204;1024;1024;1024;1;3;0;1900;50;35;0.0166836;0;0;0;-0.257982;-1.55527;-0.696602; 
1077;1096;2019/06/20 10:35:00;423;356;8.38717;422.272;350.79;0;17;1;0.000687951;-1.95669;-1.73832;0.00921295;-1.97143;-1.72915;-0.133527;0.257238;-0.161672;-0.793077;2.36766;-0.0852313;388.5;298;12.254;390.453;299.699;0;37;1;0.140959;-1.14163;-2.68086;0.161105;-1.1546;-2.6324;-0.690424;-0.26036;0.789214;3.75553;-0.11184;5.02449;1;-0.131746;-0.839796;-0.410006;0.140959;-1.13163;-1.31914;3.0658;-8.62411;3.0658;750;1127;988;532;1024;204;1024;1024;1024;1;3;0;1900;50;35;0.0166836;0;0;0;-0.250318;-1.59561;-0.779012; 
1078;1097;2019/06/20 10:35:00;423.407;355.111;8.38805;423.377;349.297;0;18;1;-0.00173576;-1.95206;-1.74104;0.00592834;-1.96562;-1.73271;-0.154471;0.294455;-0.187763;-0.900373;2.4647;-0.373972;390;300;12.0368;391.166;300.961;0;38;1;0.137284;-1.16917;-2.6616;0.153959;-1.15897;-2.64116;-0.628782;-0.214568;0.807331;3.84805;0.872354;4.5969;1;-0.131356;-0.80645;-0.394314;0.137284;-1.15917;-1.3384;2.24735;-8.18585;2.24735;750;1142;964;531;1024;204;1024;1024;1024;1;3;0;1900;50;35;0.0166836;0;0;0;-0.249576;-1.53225;-0.749197; 
1079;1098;2019/06/20 10:35:00;424;354;8.40529;423.848;348.268;0;19;1;-0.00525024;-1.94254;-1.74108;0.00257477;-1.95869;-1.73522;-0.176815;0.336061;-0.20824;-1.02842;2.56944;-0.675322;391.6;302.8;12.2414;392.365;302.827;0;39;1;0.128467;-1.15918;-2.69022;0.146311;-1.15903;-2.65588;-0.576222;-0.167069;0.823398;3.86606;1.62695;4.04259;1;-0.125892;-0.809517;-0.425445;0.128467;-1.14918;-1.30978;1.60211;-8.27962;1.60211;750;1173;946;516;1024;204;1024;1024;1024;1;3;0;1900;50;35;0.0166836;0;0;0;-0.239196;-1.53808;-0.808345; 
1080;1099;2019/06/20 10:35:00;424.222;352.978;8.3943;424.512;347.004;0;20;1;-0.00657815;-1.93999;-1.74669;-0.000171109;-1.95308;-1.73866;-0.183559;0.348167;-0.216982;-1.05512;2.46218;-0.880711;394;305;12.299;393.787;305.588;0;40;1;0.118128;-1.16122;-2.70124;0.137856;-1.15969;-2.66949;-0.540449;-0.131996;0.822982;3.73638;2.07501;3.3271;1;-0.118299;-0.801867;-0.439906;0.118128;-1.15122;-1.29876;1.32121;-8.34708;1.32121;750;1194;941;519;1024;204;1024;1024;1024;1;3;0;1900;50;35;0.0166855;0;0;0;-0.224769;-1.52355;-0.835821; 
1081;1100;2019/06/20 10:35:00;424.711;351.422;8.40926;424.755;345.937;0;21;1;-0.00946748;-1.92882;-1.74863;-0.00296002;-1.94581;-1.74165;-0.183677;0.358528;-0.213279;-0.982536;2.2358;-0.923404;394;306;12.38;396.059;307.704;0;41;1;0.117356;-1.15699;-2.71195;0.131706;-1.15888;-2.68223;-0.512366;-0.089555;0.826898;3.44641;2.35812;2.64763;1;-0.120316;-0.798812;-0.4536;0.117356;-1.14699;-1.28805;1.00089;-8.55728;1.00089;750;1217;941;527;1024;204;1024;1024;1024;1;3;0;1900;50;35;0.0166836;0;0;0;-0.2286;-1.51774;-0.861841; 
1082;1101;2019/06/20 10:35:00;425.583;350.875;8.45517;425.25;344.339;0;22;1;-0.0145635;-1.91565;-1.74091;-0.00644106;-1.93676;-1.74143;-0.187358;0.378911;-0.192765;-0.886465;1.99459;-0.784932;396.4;307.2;12.2657;395.949;308.607;0;42;1;0.108685;-1.17186;-2.70262;0.1248;-1.16277;-2.68834;-0.486994;-0.0641847;0.802688;3.11336;2.48118;1.92856;1;-0.115126;-0.774902;-0.444052;0.108685;-1.16186;-1.29738;0.808964;-8.23374;0.808964;750;1208;945;560;1024;204;1024;1024;1024;1;3;0;1900;50;35;0.0166817;0;0;0;-0.21874;-1.47231;-0.843699; 
1083;1102;2019/06/20 10:35:00;425.778;349.37;8.46426;426.146;343.749;0;23;1;-0.0156942;-1.90617;-1.7439;-0.00921701;-1.92758;-1.74217;-0.186059;0.402563;-0.167698;-0.741789;1.77746;-0.49504;398.8;309.6;12.3671;398.242;309.643;0;43;1;0.0981111;-1.17036;-2.71855;0.116793;-1.16505;-2.69741;-0.469261;-0.0802596;0.741381;2.75176;2.20836;0.965999;1;-0.107328;-0.767223;-0.460724;0.0981111;-1.16036;-1.28145;0.792792;-7.7992;0.792792;750;1177;956;600;1024;204;1024;1024;1024;1;3;0;1900;50;35;0.0166855;0;0;0;-0.203923;-1.45772;-0.875376; 
1084;1103;2019/06/20 10:35:00;427;349;8.47057;426.341;342.226;0;24;1;-0.0228827;-1.90292;-1.74379;-0.0133167;-1.92018;-1.74266;-0.188536;0.423094;-0.14035;-0.581192;1.5805;-0.107569;402;312;12.4687;400.612;311.953;0;44;1;0.0845051;-1.16886;-2.73426;0.107107;-1.16619;-2.70846;-0.468771;-0.0770056;0.713764;2.29044;1.8747;0.205717;1;-0.0978218;-0.761326;-0.476914;0.0845051;-1.15886;-1.26574;0.943739;-7.57136;0.943739;750;1155;972;630;1024;204;1024;1024;1024;1;3;0;1900;50;35;0.0166836;0;0;0;-0.185861;-1.44652;-0.906136; 
1085;1104;2019/06/20 10:35:00;428;348.3;8.47695;427.586;341.862;0;25;1;-0.0287519;-1.89804;-1.74474;-0.0179473;-1.91354;-1.74328;-0.195125;0.434283;-0.116408;-0.42188;1.34078;0.302409;402;313;12.6211;403.847;314.296;0;45;1;0.0834844;-1.15805;-2.75171;0.10002;-1.16375;-2.72144;-0.466236;-0.0650432;0.690223;1.81375;1.5325;-0.408719;1;-0.101432;-0.765494;-0.494992;0.0834844;-1.14805;-1.24829;0.783914;-7.6409;0.783914;750;1145;982;656;1024;204;1024;1024;1024;1;3;0;1900;50;35;0.0166836;0;0;0;-0.19272;-1.45444;-0.940484; 
1086;1105;2019/06/20 10:35:00;428.711;347.422;8.49816;428.618;341.177;0;26;1;-0.0328558;-1.88899;-1.74321;-0.0224198;-1.90618;-1.74326;-0.20598;0.448011;-0.0882127;-0.342719;1.20344;0.696002;405;315;12.5386;403.862;315.223;0;46;1;0.0720944;-1.17232;-2.74786;0.0916423;-1.16632;-2.72936;-0.464411;-0.0655265;0.653398;1.3921;1.18511;-0.922882;1;-0.0945142;-0.743855;-0.491119;0.0720944;-1.16232;-1.25214;0.788543;-7.19829;0.788543;750;1110;993;692;1024;204;1024;1024;1024;1;3;0;1900;50;35;0.0166836;0;0;0;-0.179577;-1.41332;-0.933127; 
1087;1106;2019/06/20 10:35:00;429.614;347.228;8.50402;429.372;340.303;0;27;1;-0.0381313;-1.88674;-1.74263;-0.0271333;-1.90034;-1.74307;-0.220183;0.450466;-0.0585848;-0.351507;1.08945;1.03575;407;317;12.5467;406.863;317.113;0;47;1;0.0640939;-1.17823;-2.75302;0.0833778;-1.16989;-2.73646;-0.471764;-0.0833191;0.608761;0.997499;0.735983;-1.42539;1;-0.0912271;-0.732119;-0.496089;0.0640939;-1.16823;-1.24698;0.782499;-6.85793;0.782499;750;1076;1000;724;1024;204;1024;1024;1024;1;3;0;1900;50;35;0.0166836;0;0;0;-0.173332;-1.39103;-0.94257; 
1088;1107;2019/06/20 10:35:00;431;347;8.49794;430.328;340.16;0;28;1;-0.0462968;-1.88697;-1.74461;-0.0328823;-1.89633;-1.74353;-0.237766;0.431818;-0.0435465;-0.412326;0.865079;1.21771;408.8;317.6;12.6187;408.912;319.047;0;48;1;0.05661;-1.17348;-2.76144;0.0753475;-1.17097;-2.74395;-0.480664;-0.0827449;0.587467;0.623795;0.367426;-1.71523;1;-0.0894924;-0.732847;-0.50497;0.05661;-1.16348;-1.23856;0.728628;-7.02277;0.728628;750;1072;1005;739;1024;204;1024;1024;1024;1;3;0;1900;50;35;0.0166836;0;0;0;-0.170036;-1.39241;-0.959443; 
1089;1108;2019/06/20 10:35:00;431.614;347.228;8.53613;431.782;340.004;0;29;1;-0.0496792;-1.87964;-1.73607;-0.0379214;-1.89132;-1.74129;-0.257361;0.403973;-0.0226238;-0.532314;0.524679;1.31033;408;319.429;12.8797;410.771;319.597;0;49;1;0.0585623;-1.15563;-2.79042;0.0703119;-1.16637;-2.75789;-0.474135;-0.0549226;0.594177;0.354801;0.321701;-1.61736;1;-0.0964838;-0.74569;-0.531709;0.0585623;-1.14563;-1.20958;0.334554;-7.66333;0.334554;750;1107;999;731;1024;204;1024;1024;1024;1;3;0;1900;50;35;0.0166836;0;0;0;-0.183319;-1.41681;-1.01025; 
1090;1109;2019/06/20 10:35:00;432.125;347.292;8.57202;432.464;340.305;0;30;1;-0.0524457;-1.87208;-1.7286;-0.0422787;-1.88555;-1.73749;-0.270147;0.380774;0.00709041;-0.645501;0.145701;1.37536;410.4;321.2;12.8273;409.978;321.407;0;50;1;0.0494652;-1.16612;-2.78925;0.0640579;-1.16629;-2.7673;-0.456502;-0.0333623;0.59162;0.261907;0.367417;-1.45849;1;-0.0917439;-0.729433;-0.526737;0.0494652;-1.15612;-1.21075;0.120417;-7.77429;0.120417;750;1123;993;738;1024;204;1024;1024;1024;1;3;0;1900;50;35;0.0166836;0;0;0;-0.174313;-1.38592;-1.0008; 
1091;1110;2019/06/20 10:35:00;433.263;348.281;8.64244;433.023;340.452;0;31;1;-0.0585898;-1.8616;-1.71139;-0.047172;-1.87837;-1.72966;-0.278869;0.36902;0.0586962;-0.721936;-0.17337;1.52492;412;323;12.8263;412.304;323.104;0;51;1;0.0432444;-1.17207;-2.79299;0.0578139;-1.16802;-2.77501;-0.442555;-0.0371104;0.569041;0.251775;0.332068;-1.35933;1;-0.0904164;-0.7163;-0.52265;0.0432444;-1.16207;-1.20701;-0.0810489;-7.63872;-0.0810489;750;1123;986;757;1024;204;1024;1024;1024;1;3;0;1900;50;35;0.0166836;0;0;0;-0.171791;-1.36097;-0.993034; 
1092;1111;2019/06/20 10:35:00;434.386;348.772;8.64234;434.211;341.533;0;32;1;-0.0650734;-1.864;-1.70985;-0.0525424;-1.87406;-1.72372;-0.287687;0.349761;0.113307;-0.759654;-0.496617;1.7202;413.6;325.2;13.1047;413.853;324.854;0;52;1;0.0362334;-1.15418;-2.82322;0.0513397;-1.16387;-2.78947;-0.426577;-0.012484;0.581605;0.302244;0.411192;-1.10248;1;-0.0887758;-0.729875;-0.546934;0.0362334;-1.14418;-1.17678;-0.297842;-8.19614;-0.297842;750;1156;980;755;1024;204;1024;1024;1024;1;3;0;1900;50;35;0.0166855;0;0;0;-0.168674;-1.38676;-1.03918; 
1093;1112;2019/06/20 10:35:00;435.569;349.49;8.7105;435.377;342.19;0;33;1;-0.0713394;-1.85286;-1.69422;-0.0581815;-1.8677;-1.71487;-0.296679;0.34032;0.180675;-0.761469;-0.738106;1.98819;414;326.5;13.1921;415.429;327.066;0;53;1;0.0344803;-1.15065;-2.83371;0.0462819;-1.1599;-2.80274;-0.404179;0.032418;0.61382;0.451411;0.709194;-0.64127;1;-0.0926618;-0.727049;-0.548576;0.0344803;-1.14065;-1.16629;-0.685574;-8.58792;-0.685574;750;1188;967;758;1024;204;1024;1024;1024;1;3;0;1900;50;35;0.0166817;0;0;0;-0.176057;-1.38139;-1.0423; 
1094;1113;2019/06/20 10:35:00;436.159;349.873;8.82001;436.615;343.034;0;34;1;-0.0737921;-1.83166;-1.672;-0.0628647;-1.85689;-1.70201;-0.297813;0.361811;0.274327;-0.696824;-0.722606;2.46309;417;328;13.2884;415.74;328.344;0;54;1;0.022965;-1.14702;-2.84525;0.0392868;-1.15604;-2.81549;-0.386601;0.0791116;0.654155;0.646708;1.07227;-0.118284;1;-0.0858296;-0.719867;-0.547256;0.022965;-1.13702;-1.15475;-0.742882;-8.68039;-0.742882;750;1200;963;769;1024;204;1024;1024;1024;1;3;0;1900;50;35;0.0166855;0;0;0;-0.163076;-1.36775;-1.03979; 
1095;1114;2019/06/20 10:35:00;436.714;351.143;8.87342;437.239;343.504;0;35;1;-0.0764722;-1.82661;-1.65802;-0.0669469;-1.8478;-1.68881;-0.29467;0.390988;0.374302;-0.567179;-0.485448;3.06392;419;330;13.1966;418.689;329.846;0;55;1;0.0155623;-1.16133;-2.84135;0.0321695;-1.15763;-2.82325;-0.384373;0.0823973;0.653655;0.746702;1.19208;0.166698;1;-0.0825092;-0.696471;-0.530163;0.0155623;-1.15133;-1.15865;-0.670645;-8.11763;-0.670645;750;1164;964;805;1024;204;1024;1024;1024;1;3;0;1900;50;35;0.0166836;0;0;0;-0.156768;-1.32329;-1.00731; 
1096;1115;2019/06/20 10:35:00;438.507;352.293;8.93204;437.81;344.918;0;36;1;-0.0859835;-1.82;-1.64362;-0.0726579;-1.83946;-1.67526;-0.298196;0.418756;0.473248;-0.452389;-0.139497;3.70109;421;331;12.7282;420.679;331.833;0;56;1;0.00829415;-1.20735;-2.80086;0.0250069;-1.17254;-2.81653;-0.38667;0.0244651;0.588928;0.727067;0.946321;0.0892605;1;-0.080952;-0.642116;-0.476118;0.00829415;-1.19735;-1.19914;-0.653349;-6.60584;-0.653349;750;1066;966;879;1024;204;1024;1024;1024;1;3;0;1900;50;35;0.0166817;0;0;0;-0.153809;-1.22002;-0.904623; 
1097;1116;2019/06/20 10:35:00;440;353.806;9.13701;439.66;346.212;0;37;1;-0.0922102;-1.78608;-1.60223;-0.0785236;-1.82345;-1.65335;-0.304194;0.470697;0.58887;-0.372631;0.322592;4.33916;421.333;332.667;13.2888;422.641;332.75;0;57;1;0.00669251;-1.16164;-2.85488;0.0195126;-1.16927;-2.82804;-0.385049;0.00969171;0.565258;0.666027;0.754807;0.03844;1;-0.0852161;-0.671804;-0.508229;0.00669251;-1.15164;-1.14512;-0.81056;-6.52338;-0.81056;750;1029;966;912;1024;204;1024;1024;1024;1;3;0;1900;50;35;0.0166855;0;0;0;-0.161911;-1.27643;-0.965635; 
1098;1117;2019/06/20 10:35:00;441.275;355.188;9.36197;441.24;347.767;0;38;1;-0.0967922;-1.74933;-1.55969;-0.0840042;-1.80121;-1.62525;-0.308236;0.573491;0.746783;-0.305691;1.08757;5.13483;424.4;333.2;13.45;423.042;334.473;0;58;1;-0.00476502;-1.14938;-2.86968;0.0122293;-1.16331;-2.84053;-0.387312;0.0080739;0.54319;0.556515;0.535033;-0.130437;1;-0.0792392;-0.66183;-0.494934;-0.00476502;-1.13938;-1.13032;-1.54458;-9.14287;-1.54458;750;1093;953;893;1024;204;1024;1024;1024;1;3;0;1900;50;35;0.0166836;0;0;0;-0.150554;-1.25748;-0.940375; 
1099;1118;2019/06/20 10:35:00;442.75;356.521;9.50169;442.61;349.178;0;39;1;-0.103113;-1.72946;-1.53293;-0.0897369;-1.77969;-1.59755;-0.311033;0.695758;0.916845;-0.240769;2.07282;6.02254;427;335;11;426.155;334.963;0;59;1;-0.0176208;-1.41221;-2.62241;0.00327425;-1.23798;-2.77509;-0.40424;-0.307128;0.215435;0.333666;-1.03576;-1.67016;1;-0.0721161;-0.479689;-0.219959;-0.0176208;-1.3;-1.37759;-2.26737;-2.98693;-2.26737;750;797;943;1182;1024;204;1024;1024;1024;1;3;0;1900;50;35;0.0166836;0;0;0;-0.137021;-0.911408;-0.417922; 
1100;1119;2019/06/20 10:35:00;444.626;358.404;9.54741;444.176;350.591;0;40;1;-0.112426;-1.72942;-1.52019;-0.0965436;-1.76461;-1.57434;-0.321199;0.786194;1.06024;-0.237909;2.93951;6.75399;426;336;10.4997;428.486;336.388;0;60;1;-0.0137079;-1.48347;-2.55937;-0.00182039;-1.31163;-2.71038;-0.406806;-0.805998;-0.290778;0.119462;-4.15831;-4.77799;1;-0.0828357;-0.464607;-0.133718;-0.0137079;-1.3;-1.44063;-3.78156;2.05198;-3.78156;750;600;913;1463;1024;204;1024;1024;1024;1;3;0;1900;50;35;0.0166836;0;0;0;-0.157388;-0.882753;-0.254064; 
1101;1120;2019/06/20 10:35:00;446.069;360.276;10.1595;445.876;359.331;0;41;1;-0.112738;-1.63291;-1.42356;-0.101402;-1.7251;-1.52911;-0.3304;0.962041;1.2743;-0.285518;4.0456;7.64875;428.4;337.2;11.7366;427.402;337.261;0;61;1;-0.0224672;-1.33141;-2.71399;-0.00801445;-1.31756;-2.71146;-0.404657;-1.12269;-0.621177;-0.0093744;-7.31044;-7.96096;1;-0.0789347;-0.425097;-0.243096;-0.0224672;-1.3;-1.28601;-2.83927;6.49831;-2.83927;750;600;936;1612;1024;204;1024;1024;1024;1;3;0;1900;50;35;0.0166836;0;0;0;-0.149976;-0.807685;-0.461882; 
1102;1121;2019/06/20 10:35:00;447.267;362.267;10.3254;447.501;361.448;0;42;1;-0.116715;-1.61473;-1.39542;-0.105996;-1.69199;-1.489;-0.331454;1.16652;1.50882;-0.304206;5.41534;8.72725;430;339;12.6424;429.915;338.525;0;62;1;-0.0271726;-1.24195;-2.81002;-0.0137619;-1.29488;-2.74103;-0.397709;-1.16246;-0.674417;-0.0497357;-9.12905;-9.82473;1;-0.0788232;-0.460031;-0.299027;-0.0271726;-1.23195;-1.18998;-2.35693;7.9306;-2.35693;750;600;946;1709;1024;204;1024;1024;1024;1;3;0;1900;50;35;0.0166836;0;0;0;-0.149764;-0.874059;-0.568151; 
1103;1122;2019/06/20 10:35:00;449.226;364.452;10.4619;448.806;363.647;0;43;1;-0.124537;-1.60239;-1.37152;-0.111558;-1.66511;-1.45376;-0.330877;1.33264;1.70284;-0.289147;6.69349;9.6877;432;340;13.5158;431.578;340.359;0;63;1;-0.0328007;-1.16479;-2.88894;-0.0194735;-1.25585;-2.7854;-0.394412;-1.04344;-0.575023;-0.067255;-9.68569;-10.4513;1;-0.0787576;-0.510316;-0.342698;-0.0328007;-1.15479;-1.11106;-2.12305;7.53645;-2.12305;750;600;952;1745;1024;204;1024;1024;1024;1;3;0;1900;50;35;0.0166836;0;0;0;-0.149639;-0.969601;-0.651127; 
1104;1123;2019/06/20 10:35:00;450.973;366.703;10.5376;450.874;366.034;0;44;1;-0.131916;-1.59979;-1.35583;-0.117666;-1.64551;-1.42438;-0.333036;1.42176;1.82437;-0.272586;7.40573;10.1186;432;340.571;14.0192;433.662;341.394;0;64;1;-0.031623;-1.12467;-2.92995;-0.0231184;-1.2165;-2.82877;-0.377894;-0.838614;-0.392033;-0.00271889;-9.19473;-10.0079;1;-0.0860427;-0.530843;-0.354325;-0.031623;-1.11467;-1.07005;-2.43437;6.27946;-2.43437;750;600;943;1727;1024;204;1024;1024;1024;1;3;0;1900;50;35;0.0166836;0;0;0;-0.163481;-1.0086;-0.673218; 
1105;1124;2019/06/20 10:35:00;452.651;368.326;10.7531;452.711;368.471;0;45;1;-0.137059;-1.57402;-1.32452;-0.123484;-1.62407;-1.39442;-0.334671;1.47492;1.90633;-0.25801;7.55692;10.0251;434.667;341.333;14.1322;433.678;341.974;0;65;1;-0.0407858;-1.11793;-2.93998;-0.0284186;-1.18693;-2.86213;-0.35338;-0.299169;0.112566;0.201605;-5.48503;-6.4158;1;-0.0826978;-0.516139;-0.334399;-0.0407858;-1.10793;-1.06002;-2.65677;2.58173;-2.65677;750;600;933;1562;1024;204;1024;1024;1024;1;3;0;1900;50;35;0.0166836;0;0;0;-0.157126;-0.980664;-0.635358; 
1106;1125;2019/06/20 10:35:00;454.863;370.118;10.937;454.491;370.274;0;46;1;-0.144846;-1.55441;-1.29778;-0.129892;-1.60317;-1.36543;-0.33406;1.53004;1.9786;-0.206197;7.50648;9.68468;436.4;343.2;14.204;436.324;342.727;0;66;1;-0.0466689;-1.11776;-2.94893;-0.0338937;-1.16618;-2.88817;-0.340188;0.401701;0.777972;0.38716;1.53479;0.421102;1;-0.0832234;-0.495409;-0.31436;-0.0466689;-1.10776;-1.05107;-2.89382;-2.27227;-2.89382;750;704;925;1283;1024;204;1024;1024;1024;1;3;0;1900;50;35;0.0166855;0;0;0;-0.158124;-0.941278;-0.597284; 
1107;1126;2019/06/20 10:35:00;456.7;371.6;11.0705;456.806;372.218;0;47;1;-0.15138;-1.54125;-1.27847;-0.136339;-1.58459;-1.33934;-0.340041;1.47948;1.94546;-0.162246;6.57153;8.49273;437.429;344;14.3673;438.16;344.637;0;67;1;-0.0497112;-1.10738;-2.96239;-0.0386389;-1.14854;-2.91044;-0.326487;0.916426;1.26188;0.544658;9.06906;7.77726;1;-0.0866275;-0.487208;-0.301734;-0.0497112;-1.09738;-1.03761;-3.22001;-6.68034;-3.22001;750;1097;914;989;1024;204;1024;1024;1024;1;3;0;1900;50;35;0.0166817;0;0;0;-0.164592;-0.925695;-0.573295; 
1108;1127;2019/06/20 10:35:00;458.567;373.767;11.3269;458.713;373.785;0;48;1;-0.156176;-1.51434;-1.2443;-0.14229;-1.56352;-1.31083;-0.349051;1.40103;1.87925;-0.167666;4.87997;6.57584;438.333;345.667;14.4513;439.28;345.479;0;68;1;-0.0525463;-1.10576;-2.97158;-0.0428111;-1.13571;-2.92878;-0.311969;1.18589;1.50735;0.6694;14.8251;13.3844;1;-0.0897437;-0.467755;-0.282404;-0.0525463;-1.09576;-1.02842;-3.66785;-9.18095;-3.66785;750;1503;901;765;1024;204;1024;1024;1024;1;3;0;1900;50;35;0.0166855;0;0;0;-0.170513;-0.888735;-0.536568; 
1109;1128;2019/06/20 10:35:00;460.588;375.373;11.4922;460.67;376.044;0;49;1;-0.162708;-1.49839;-1.22258;-0.148415;-1.54398;-1.28435;-0.356707;1.32462;1.80447;-0.203811;2.89593;4.35163;441;347;14.4971;440.21;347.172;0;69;1;-0.0615587;-1.1061;-2.97734;-0.0484354;-1.12682;-2.94335;-0.302909;1.22711;1.53555;0.767272;17.9679;16.4642;1;-0.0868565;-0.447877;-0.261698;-0.0615587;-1.0961;-1.02266;-3.83613;-9.83722;-3.83613;750;1748;894;635;1024;204;1024;1024;1024;1;3;0;1900;50;35;0.0166836;0;0;0;-0.165027;-0.850967;-0.497226; 
1110;1129;2019/06/20 10:35:00;462.122;377.306;11.5858;462.758;377.677;0;50;1;-0.168001;-1.49326;-1.20814;-0.154291;-1.52876;-1.26149;-0.360374;1.26128;1.73357;-0.231529;1.09631;2.24813;443.6;349.2;14.6144;442.908;348.503;0;70;1;-0.0699426;-1.10352;-2.98966;-0.0548876;-1.11983;-2.95724;-0.308691;1.12253;1.43471;0.73689;18.6172;17.1779;1;-0.0843485;-0.435247;-0.251151;-0.0699426;-1.09352;-1.01034;-3.73461;-9.32368;-3.73461;750;1820;895;584;1024;204;1024;1024;1024;1;3;0;1900;50;35;0.0166836;0;0;0;-0.160262;-0.82697;-0.477188; 
1111;1130;2019/06/20 10:35:00;463.765;379.137;11.8291;464.321;379.604;0;51;1;-0.171474;-1.46901;-1.17907;-0.159446;-1.51084;-1.23676;-0.359925;1.20921;1.67012;-0.239829;-0.403964;0.405033;444;350.571;14.7121;445.576;350.744;0;71;1;-0.0708346;-1.10008;-2.99892;-0.0596717;-1.11391;-2.96975;-0.310098;0.965298;1.29085;0.615083;16.223;15.015;1;-0.0886114;-0.420762;-0.235685;-0.0708346;-1.09008;-1.00108;-3.96924;-8.26535;-3.96924;750;1752;892;617;1024;204;1024;1024;1024;1;3;0;1900;50;35;0.0166836;0;0;0;-0.168362;-0.799448;-0.447801; 
1112;1131;2019/06/20 10:35:00;465.393;380.679;12.0993;466.009;381.449;0;52;1;-0.17436;-1.44153;-1.14926;-0.16392;-1.49005;-1.21051;-0.351929;1.17755;1.62112;-0.2153;-1.65091;-1.18545;446.667;352.667;14.8924;445.949;352.149;0;72;1;-0.0789121;-1.09263;-3.014886;-0.0654438;-1.10752;-2.98329;-0.312131;0.813549;1.1546;0.481165;11.3795;10.514;1;-0.0930855;-0.399969;-0.209432;-0.0708346;-1.09008;-1.00108;-5.28791;3.3409;-5.28791;750;769;876;1266;1024;204;1024;1024;1024;1;3;0;1900;50;35;0.0166836;0;0;0;-0.176863;-0.75994;-0.397921; 
1113;1132;2019/06/20 10:35:01;467.311;381.836;12.2258;467.664;382.993;0;53;1;-0.180386;-1.43056;-1.13477;-0.16886;-1.4722;-1.18779;-0.341107;1.15564;1.57825;-0.13344;-2.28456;-2.17862;449.6;353.2;14.9074;448.641;354.302;0;73;1;-0.0886514;-1.09302;-3.016857;-0.0724061;-1.10317;-2.99336;-0.322208;0.6694;1.0241;0.305797;5.84062;5.35826;1;-0.0980252;-0.382123;-0.186711;-0.0708346;-1.09008;-1.00108;-5.27355;3.43683;-5.27355;750;778;878;1242;1024;204;1024;1024;1024;1;3;0;1900;50;35;0.0166836;0;0;0;-0.186248;-0.726033;-0.354751; 
1114;1133;2019/06/20 10:35:01;469.059;382.176;12.3012;469.577;384.109;0;54;1;-0.186368;-1.42295;-1.12706;-0.174112;-1.45742;-1.16957;-0.331825;1.11733;1.5114;-0.0112268;-2.50438;-2.77707;452;355;15.07;451.613;354.84;0;74;1;-0.0956416;-1.08622;-3.03073;-0.0793767;-1.09809;-3.00457;-0.339439;0.551963;0.917321;0.0737107;0.971223;0.857216;1;-0.103278;-0.367347;-0.168492;-0.0708346;-1.09008;-1.00108;-5.28052;3.35497;-5.28052;750;780;880;1220;1024;204;1024;1024;1024;1;3;0;1900;50;35;0.0166836;0;0;0;-0.196228;-0.697958;-0.320135; 
1115;1134;2019/06/20 10:35:01;470.475;382.725;12.4152;471.297;384.342;0;55;1;-0.19035;-1.41173;-1.11551;-0.178984;-1.44372;-1.15335;-0.321244;1.07105;1.43031;0.13497;-2.51588;-3.16137;452.8;355.6;15.1202;454.102;356.673;0;75;1;-0.0979643;-1.08427;-3.035031;-0.084953;-1.09394;-3.013708;-0.349586;0.462578;0.831547;-0.14229;-2.47231;-2.29881;1;-0.108149;-0.353639;-0.152274;-0.0708346;-1.09008;-1.00108;-5.26727;3.19309;-5.26727;750;777;883;1200;1024;204;1024;1024;1024;1;3;0;1900;50;35;0.0166836;0;0;0;-0.205483;-0.671914;-0.28932; 
1116;1135;2019/06/20 10:35:01;471.911;382.222;12.497;472.67;384.764;0;56;1;-0.194838;-1.40081;-1.10931;-0.18374;-1.43084;-1.14014;-0.310422;1.03391;1.3431;0.280589;-2.41808;-3.45709;455.333;357.333;13.5449;454.925;357.259;0;76;1;-0.118691;-1.21571;-2.9263;-0.0950743;-1.13047;-2.98749;-0.370335;0.235029;0.619783;-0.331701;-5.02979;-4.63567;1;-0.0650492;-0.22513;-0.0664401;-0.118691;-1.20571;-1.0737;-4.45646;-0.445685;-4.45646;750;704;910;1136;1024;204;1024;1024;1024;1;3;0;1900;50;35;0.0166836;0;0;0;-0.123594;-0.427747;-0.126236; 
1117;1136;2019/06/20 10:35:01;473.511;381.574;12.5906;474.053;384.061;0;57;1;-0.199728;-1.38824;-1.10246;-0.188536;-1.41806;-1.12883;-0.302496;0.991079;1.23714;0.397838;-2.32247;-3.80442;459;359;12.51;457.244;358.793;0;77;1;-0.143136;-1.32185;-2.84111;-0.109493;-1.18789;-2.94357;-0.421283;-0.154606;0.267292;-0.643311;-7.49295;-6.87147;1;-0.0454006;-0.118062;0.0300504;-0.143136;-1.3;-1.15889;-3.59128;9.23192;-3.59128;750;600;938;1398;1024;204;1024;1024;1024;1;3;0;1900;50;35;0.0166836;0;0;0;-0.0862612;-0.224318;0.0570958; 
1118;1137;2019/06/20 10:35:01;474.729;380.396;12.7299;475.603;383.161;0;58;1;-0.202319;-1.36918;-1.09293;-0.192671;-1.4034;-1.11806;-0.296384;0.940884;1.11171;0.460654;-2.3392;-4.31823;460.4;359.2;12.5851;460.812;360.316;0;78;1;-0.147832;-1.31463;-2.84846;-0.120995;-1.22591;-2.91504;-0.474748;-0.565826;-0.112334;-1.03579;-10.0077;-9.18547;1;-0.0448384;-0.103399;0.0334743;-0.147832;-1.3;-1.15154;-2.62066;12.8524;-2.62066;750;600;970;1493;1024;204;1024;1024;1024;1;3;0;1900;50;35;0.0166836;0;0;0;-0.085193;-0.196457;0.0636012; 
1119;1138;2019/06/20 10:35:01;475.916;379.242;12.9374;476.766;381.676;0;59;1;-0.203652;-1.34351;-1.07784;-0.195965;-1.38543;-1.106;-0.286142;0.911252;0.993869;0.49603;-2.38007;-4.92608;462.667;360.667;12.8872;462.239;360.453;0;79;1;-0.153143;-1.28856;-2.87857;-0.130639;-1.2447;-2.9041;-0.517545;-0.905039;-0.424067;-1.40203;-12.296;-11.2981;1;-0.0428224;-0.106876;0.0154299;-0.153143;-1.27856;-1.12143;-2.26428;15.5919;-2.26428;750;600;986;1549;1024;204;1024;1024;1024;1;3;0;1900;50;35;0.0166836;0;0;0;-0.0813625;-0.203064;0.0293167; 
1120;1139;2019/06/20 10:35:01;477.34;377.794;13.1139;477.894;380.187;0;60;1;-0.20633;-1.32081;-1.06635;-0.199075;-1.36605;-1.0941;-0.271432;0.911885;0.897887;0.53894;-2.24897;-5.40717;465.6;360.8;13.1309;464.537;361.883;0;80;1;-0.161448;-1.26507;-2.89966;-0.139882;-1.25081;-2.90277;-0.552297;-1.1533;-0.661221;-1.69177;-14.1916;-13.0865;1;-0.0376266;-0.110978;0.00623536;-0.161448;-1.25507;-1.10034;-1.6668;17.801;-1.6668;750;600;1005;1596;1024;204;1024;1024;1024;1;3;0;1900;50;35;0.0166855;0;0;0;-0.0714906;-0.210859;0.0118472; 
1121;1140;2019/06/20 10:35:01;478.371;376.784;13.2566;479.253;378.38;0;61;1;-0.20799;-1.30341;-1.05695;-0.201749;-1.34725;-1.08296;-0.253828;0.932576;0.820025;0.592752;-1.9027;-5.68293;465.6;360.8;13.1309;467.479;361.961;1;0;1;-0.161448;-1.26507;-2.89966;-0.139882;-1.25081;-2.90277;-0.552297;-1.1533;-0.661221;-1.69177;-14.1916;-13.0865;1;-0.0403011;-0.0921873;0.0173805;-0.161448;-1.25507;-1.10034;-0.932779;18.6261;-0.932779;750;600;1022;1579;1024;204;1024;1024;1024;1;3;0;1900;50;35;0.0166836;0;0;0;-0.076572;-0.175156;0.0330229; 
1122;1141;2019/06/20 10:35:01;479.312;375.032;13.4057;480.208;377.017;0;62;1;-0.209178;-1.28346;-1.04877;-0.203978;-1.32812;-1.0727;-0.233165;0.970031;0.761492;0.664362;-1.39689;-5.7338;469;360;13.3596;467.479;361.961;0;1;1;-0.171383;-1.24091;-2.91687;-0.149332;-1.24784;-2.907;-0.55188;-1.21909;-0.762218;-1.70793;-14.2747;-13.3106;1;-0.0325945;-0.0972085;0.0104345;-0.171383;-1.23091;-1.08313;-0.381943;19.6224;-0.381943;750;600;1036;1584;1024;204;1024;1024;1024;1;3;0;1900;50;35;0.0166836;0;0;0;-0.0619296;-0.184696;0.0198256; 
1123;1142;2019/06/20 10:35:01;479.938;373.155;13.5047;481.07;374.918;0;63;1;-0.209958;-1.26824;-1.04488;-0.205772;-1.31015;-1.06435;-0.208771;1.0132;0.714556;0.773131;-0.749729;-5.52846;469;360;13.3596;470.808;361.04;1;0;1;-0.171383;-1.24091;-2.91687;-0.149332;-1.24784;-2.907;-0.55188;-1.21909;-0.762218;-1.70793;-14.2747;-13.3106;1;-0.0343887;-0.0792469;0.0187814;-0.171383;-1.23091;-1.08313;0.226682;20.4981;0.226682;750;600;1052;1578;1024;204;1024;1024;1024;1;3;0;1900;50;35;0.0166836;0;0;0;-0.0653385;-0.150569;0.0356847; 
1124;1143;2019/06/20 10:35:01;480.98;371.714;13.5638;481.596;372.711;0;64;1;-0.212875;-1.25829;-1.04323;-0.207903;-1.29459;-1.05802;-0.186128;1.04269;0.668671;0.90445;-0.0430382;-5.08739;469;360;13.3596;470.808;361.04;2;0;1;-0.171383;-1.24091;-2.91687;-0.149332;-1.24784;-2.907;-0.55188;-1.21909;-0.762218;-1.70793;-14.2747;-13.3106;1;-0.0365198;-0.0636871;0.0251185;-0.171383;-1.23091;-1.08313;0.491343;21.0645;0.491343;750;600;1060;1578;1024;204;1024;1024;1024;1;3;0;1900;50;35;0.0166836;0;0;0;-0.0693876;-0.121005;0.0477251; 
1125;1144;2019/06/20 10:35:01;482.205;370.432;13.7487;482.54;370.991;0;65;1;-0.214458;-1.23747;-1.03175;-0.209869;-1.27746;-1.05013;-0.167236;1.05707;0.624415;1.0178;0.556832;-4.52872;469;360;13.3596;470.808;361.04;3;0;1;-0.171383;-1.24091;-2.91687;-0.149332;-1.24784;-2.907;-0.55188;-1.21909;-0.762218;-1.70793;-14.2747;-13.3106;1;-0.0384862;-0.0465491;0.0329995;-0.171383;-1.23091;-1.08313;1.01863;21.5295;1.01863;750;600;1074;1587;1024;204;1024;1024;1024;1;3;0;1900;50;35;0.0166836;0;0;0;-0.0731238;-0.0884432;0.0626991; 
1126;1145;2019/06/20 10:35:01;483.023;368.884;13.8533;483.694;369.473;0;66;1;-0.215789;-1.22347;-1.02702;-0.211645;-1.26126;-1.0432;-0.150573;1.05296;0.578054;1.09363;0.897829;-3.99527;469;360;13.3596;470.808;361.04;4;0;1;-0.171383;-1.24091;-2.91687;-0.149332;-1.24784;-2.907;-0.55188;-1.21909;-0.762218;-1.70793;-14.2747;-13.3106;1;-0.040262;-0.0303519;0.0399354;-0.171383;-1.23091;-1.08313;1.31078;21.814;1.31078;750;600;1082;1590;1024;204;1024;1024;1024;1;3;0;1900;50;35;0.0166836;0;0;0;-0.0764979;-0.0576686;0.0758772; 
1127;1146;2019/06/20 10:35:01;484.128;367.538;13.9557;484.428;367.738;0;67;1;-0.218155;-1.21046;-1.02211;-0.213598;-1.24602;-1.03687;-0.137691;1.03631;0.530988;1.12025;0.953217;-3.55214;469;360;13.3596;470.808;361.04;5;0;1;-0.171383;-1.24091;-2.91687;-0.149332;-1.24784;-2.907;-0.55188;-1.21909;-0.762218;-1.70793;-14.2747;-13.3106;1;-0.0422149;-0.0151107;0.046263;-0.171383;-1.23091;-1.08313;1.48655;21.9487;1.48655;750;600;1085;1591;1024;204;1024;1024;1024;1;3;0;1900;50;35;0.0166836;0;0;0;-0.0802082;-0.0287104;0.0878997; 
1128;1147;2019/06/20 10:35:01;484.932;366.082;13.9985;485.463;366.245;0;68;1;-0.220352;-1.20242;-1.02183;-0.215624;-1.23294;-1.03236;-0.129154;1.00211;0.479794;1.08777;0.700136;-3.25693;469;360;13.3596;470.808;361.04;6;0;1;-0.171383;-1.24091;-2.91687;-0.149332;-1.24784;-2.907;-0.55188;-1.21909;-0.762218;-1.70793;-14.2747;-13.3106;1;-0.0442411;-0.00203001;0.0507758;-0.171383;-1.23091;-1.08313;1.54081;21.9151;1.54081;750;600;1086;1587;1024;204;1024;1024;1024;1;3;0;1900;50;35;0.0166836;0;0;0;-0.084058;-0.00385703;0.096474; 
1129;1148;2019/06/20 10:35:01;485.493;364.806;14.0909;486.195;364.686;0;69;1;-0.220894;-1.19075;-1.0176;-0.217205;-1.22028;-1.02793;-0.123179;0.960397;0.433412;0.994683;0.209069;-3.07759;469;360;13.3596;470.808;361.04;7;0;1;-0.171383;-1.24091;-2.91687;-0.149332;-1.24784;-2.907;-0.55188;-1.21909;-0.762218;-1.70793;-14.2747;-13.3106;1;-0.045822;0.0106263;0.0552022;-0.171383;-1.23091;-1.08313;1.68072;21.8086;1.68072;750;600;1087;1582;1024;204;1024;1024;1024;1;3;0;1900;50;35;0.0166836;0;0;0;-0.0870617;0.02019;0.104884; 
1130;1149;2019/06/20 10:35:01;486.531;363.188;14.1963;486.699;363.348;0;70;1;-0.222905;-1.17715;-1.01316;-0.218915;-1.20734;-1.0235;-0.117911;0.924895;0.397963;0.869399;-0.345257;-2.92829;469;360;13.3596;470.808;361.04;8;0;1;-0.171383;-1.24091;-2.91687;-0.149332;-1.24784;-2.907;-0.55188;-1.21909;-0.762218;-1.70793;-14.2747;-13.3106;1;-0.0475319;0.0235655;0.0596324;-0.171383;-1.23091;-1.08313;1.76905;21.7502;1.76905;750;600;1085;1580;1024;204;1024;1024;1024;1;3;0;1900;50;35;0.0166836;0;0;0;-0.0903107;0.0447745;0.113302; 
1131;1150;2019/06/20 10:35:01;486.793;361.517;14.2364;487.696;361.685;0;71;1;-0.223195;-1.16894;-1.01352;-0.220199;-1.19582;-1.02051;-0.112024;0.881151;0.35717;0.742267;-0.910103;-2.82487;469;360;13.3596;470.808;361.04;9;0;1;-0.171383;-1.24091;-2.91687;-0.149332;-1.24784;-2.907;-0.55188;-1.21909;-0.762218;-1.70793;-14.2747;-13.3106;1;-0.0488159;0.0350871;0.0626276;-0.171383;-1.23091;-1.08313;1.8572;21.6206;1.8572;750;600;1084;1572;1024;204;1024;1024;1024;1;3;0;1900;50;35;0.0166836;0;0;0;-0.0927503;0.0666655;0.118992; 
1132;1151;2019/06/20 10:35:01;488.065;360.742;14.2886;487.893;359.984;0;72;1;-0.22682;-1.1624;-1.0113;-0.222185;-1.1858;-1.01774;-0.109332;0.830235;0.316014;0.610155;-1.43604;-2.742;469;360;13.3596;470.808;361.04;10;0;0;0;0;-4;0;0;-4;0;0;0;0;0;0;1;-0.0508023;0.0451123;0.0653896;-0.171383;-1.23091;-1.08313;-2.05856;7.32759;-2.05856;750;600;959;1059;1024;204;1024;1024;1024;1;3;0;1900;50;35;0.0166855;0;0;0;-0.0965243;0.0857133;0.12424; 
1133;1152;2019/06/20 10:35:01;488.633;359.267;14.4236;489.12;359.21;0;73;1;-0.226665;-1.14725;-1.00463;-0.223529;-1.17423;-1.01381;-0.105283;0.784997;0.281762;0.495594;-1.86586;-2.64109;469;360;13.3596;-1;-1;11;0;0;0;0;-4;0;0;-4;0;0;0;0;0;0;1;-0.052146;0.0566759;0.0693249;-0.171383;-1.23091;-1.08313;-2.04361;7.14145;-2.04361;750;600;955;1055;1024;204;1024;1024;1024;1;3;0;1900;50;35;0.0166817;0;0;0;-0.0990774;0.107684;0.131717; 
1134;1153;2019/06/20 10:35:01;489.464;357.929;14.3819;489.643;357.729;0;74;1;-0.230204;-1.14669;-1.01008;-0.225532;-1.16597;-1.01269;-0.102759;0.738597;0.247649;0.402827;-2.1725;-2.51228;469;360;13.3596;-1;-1;12;0;0;0;0;-4;0;0;-4;0;0;0;0;0;0;1;-0.0541485;0.0649389;0.0704439;-0.171383;-1.23091;-1.08313;-2.05641;6.89585;-2.05641;750;600;953;1052;1024;204;1024;1024;1024;1;3;0;1900;50;35;0.0166855;0;0;0;-0.102882;0.123384;0.133843; 
1135;1154;2019/06/20 10:35:01;490.867;356.767;14.256;490.424;356.411;0;75;1;-0.237147;-1.15342;-1.02123;-0.229016;-1.1622;-1.01525;-0.108851;0.675231;0.199255;0.29895;-2.44299;-2.44303;509.333;357.333;14.3927;-1;-1;0;1;1;-0.298918;-1.1441;-2.98955;-0.298918;-1.1441;-2.98955;0;0;0;0;0;0;1;0.0699018;-0.0280999;-0.00479889;-0.298918;-1.1341;-1.01045;3.60122;8.92286;3.60122;750;600;1075;999;1024;204;1024;1024;1024;1;3;0;1900;50;35;0.0166836;0;0;0;0.132813;-0.0533898;-0.00911789; 
1136;1155;2019/06/20 10:35:01;490.462;355.769;14.3578;491.798;355.285;0;76;1;-0.234057;-1.14234;-1.01589;-0.230528;-1.15624;-1.01544;-0.111715;0.609324;0.151755;0.204128;-2.72677;-2.44963;509.333;356.667;14.4894;509.333;357.333;0;2;1;-0.296923;-1.13455;-2.99503;-0.298319;-1.14124;-2.99119;0;0;0;0;0;0;1;0.0663945;-0.0316973;-0.0104765;-0.296923;-1.12455;-1.00497;3.50815;8.33991;3.50815;750;600;1071;986;1024;204;1024;1024;1024;1;3;0;1900;50;35;0.0166836;0;0;0;0.12615;-0.0602248;-0.0199053; 
1137;1156;2019/06/20 10:35:01;491.094;354.34;14.35;491.352;354.313;0;77;1;-0.236384;-1.1388;-1.01916;-0.232285;-1.15101;-1.01656;-0.115324;0.544656;0.10683;0.109291;-2.98065;-2.4701;512.333;354.333;14.5008;509.333;356.667;0;3;1;-0.307013;-1.12694;-2.99142;-0.300928;-1.13695;-2.99126;0;0;0;0;0;0;1;0.0747281;-0.0340717;-0.00798297;-0.307013;-1.11694;-1.00858;4.00216;7.56878;4.00216;750;600;1080;977;1024;204;1024;1024;1024;1;3;0;1900;50;35;0.0166836;0;0;0;0.141983;-0.0647362;-0.0151676; 
1138;1157;2019/06/20 10:35:01;490.821;353.571;14.1886;491.948;352.926;0;78;1;-0.238113;-1.14949;-1.03223;-0.234034;-1.15055;-1.02126;-0.116539;0.467619;0.0500476;0.0367758;-3.23739;-2.54485;514.571;354;14.3698;512.333;354.333;0;4;1;-0.317584;-1.13624;-2.9816;-0.305924;-1.13673;-2.98836;0;0;0;0;0;0;1;0.08355;-0.0243123;-0.00285816;-0.317584;-1.12624;-1.0184;4.44727;6.88658;4.44727;750;600;1089;962;1024;204;1024;1024;1024;1;3;0;1900;50;35;0.0166836;0;0;0;0.158745;-0.0461933;-0.00543051; 
1139;1158;2019/06/20 10:35:01;492;352.839;14.037;491.601;352.218;0;79;1;-0.244876;-1.15973;-1.04481;-0.237286;-1.15331;-1.02833;-0.124895;0.364186;-0.0279802;-0.0562993;-3.62394;-2.7646;517.429;352;14.3577;514.571;354;0;5;1;-0.327782;-1.13138;-2.97693;-0.312482;-1.13513;-2.98493;0;0;0;0;0;0;1;0.0904956;-0.0319216;-0.00525689;-0.327782;-1.12138;-1.02307;4.92315;5.50697;4.92315;750;600;1099;929;1024;204;1024;1024;1024;1;3;0;1900;50;35;0.0166836;0;0;0;0.171942;-0.0606511;-0.00998809; 
1140;1159;2019/06/20 10:35:01;492.469;351.594;13.8684;492.721;351.554;0;80;1;-0.249538;-1.17007;-1.05996;-0.240962;-1.15834;-1.03782;-0.136595;0.249007;-0.117194;-0.168986;-4.13074;-3.11665;520.571;350;14.148;517.429;352;0;6;1;-0.343725;-1.14225;-2.9579;-0.321855;-1.13727;-2.97682;0;0;0;0;0;0;1;0.102763;-0.0260841;0.00428033;-0.343725;-1.13225;-1.0421;5.29591;4.4827;5.29591;750;600;1104;911;1024;204;1024;1024;1024;1;3;0;1900;50;35;0.0166836;0;0;0;0.19525;-0.0495597;0.00813262; 
1141;1160;2019/06/20 10:35:01;492.74;350.192;13.6893;493.131;350.377;0;81;1;-0.253791;-1.18111;-1.07663;-0.244811;-1.16517;-1.04946;-0.14507;0.137555;-0.207012;-0.246122;-4.62697;-3.49341;524;349;14.0851;520.571;350;0;7;1;-0.357407;-1.14439;-2.95131;-0.33252;-1.1394;-2.96917;0;0;0;0;0;0;1;0.112597;-0.0307776;-0.000768423;-0.357407;-1.13439;-1.04869;5.67878;3.07075;5.67878;750;626;1112;871;1024;204;1024;1024;1024;1;3;0;1900;50;35;0.0166836;0;0;0;0.213933;-0.0584774;-0.00146; 
1142;1161;2019/06/20 10:35:01;492.925;349.5;13.5503;493.329;349.033;0;82;1;-0.257077;-1.1911;-1.08907;-0.24849;-1.17295;-1.06134;-0.158817;0.015786;-0.307626;-0.335889;-5.14793;-3.93171;526;347;14.4989;524;349;0;8;1;-0.35409;-1.10597;-2.97747;-0.338991;-1.12937;-2.97166;-0.363932;0.0755666;-0.200198;-1.45425;0.30196;-0.79998;1;0.105599;-0.0769768;-0.0388123;-0.35409;-1.09597;-1.02253;8.96642;-1.04619;8.96642;750;821;1215;841;1024;204;1024;1024;1024;1;3;0;1900;50;35;0.0166836;0;0;0;0.200638;-0.146256;-0.0737433; 
1143;1162;2019/06/20 10:35:01;493.901;348.889;13.4901;493.457;348.393;0;83;1;-0.261836;-1.19452;-1.09517;-0.252494;-1.17942;-1.07149;-0.176044;-0.104054;-0.40409;-0.444168;-5.68097;-4.40063;529.75;344.25;15.5393;527.612;346.012;0;9;1;-0.342424;-1.02453;-3.041094;-0.340021;-1.09792;-2.99249;-0.374574;0.201282;-0.115215;-2.36933;0.98549;-0.940382;1;0.101596;-0.0834492;-0.0489604;-0.35409;-1.09597;-1.02253;0.169878;-2.10086;0.169878;750;862;989;817;1024;204;1024;1024;1024;1;3;0;1900;50;35;0.0166836;0;0;0;0.193032;-0.158554;-0.0930248; 
1144;1163;2019/06/20 10:35:01;494.136;348.045;13.3976;494.396;347.835;0;84;1;-0.264519;-1.20014;-1.10445;-0.256101;-1.18563;-1.08138;-0.193808;-0.202617;-0.482688;-0.575265;-6.08681;-4.76916;534;342;16.5106;531.712;343.066;0;10;1;-0.335124;-0.95857;-3.093781;-0.338552;-1.05612;-3.022877;-0.355122;0.442918;0.0687875;-2.84064;2.36117;-0.289358;1;0.0979882;-0.0896652;-0.0588481;-0.35409;-1.09597;-1.02253;-0.0763041;-2.98385;-0.0763041;750;919;981;787;1024;204;1024;1024;1024;1;3;0;1900;50;35;0.0166836;0;0;0;0.186178;-0.170364;-0.111811; 
1145;1164;2019/06/20 10:35:01;494.713;347.402;13.2546;494.616;347.045;0;85;1;-0.269541;-1.21106;-1.11769;-0.260133;-1.19326;-1.09227;-0.20758;-0.281229;-0.545139;-0.675567;-6.23113;-4.92804;536;340.571;16.6781;536.4;340.553;0;11;1;-0.337743;-0.945368;-3.100541;-0.338309;-1.02289;-3.046176;-0.316278;0.714249;0.285996;-2.96822;4.2708;0.969211;1;0.0939562;-0.0972917;-0.069741;-0.35409;-1.09597;-1.02253;-0.290636;-3.72866;-0.290636;750;960;975;765;1024;204;1024;1024;1024;1;3;0;1900;50;35;0.0166836;0;0;0;0.178517;-0.184854;-0.132508; 
1146;1165;2019/06/20 10:35:01;495.167;347.071;13.0969;495.173;346.45;0;86;1;-0.274518;-1.22459;-1.13184;-0.264449;-1.20266;-1.10414;-0.218399;-0.345846;-0.592117;-0.73222;-6.11563;-4.85455;539;337;16.8377;538.718;338.926;0;12;1;-0.343432;-0.927551;-3.10327;-0.339846;-0.994289;-3.063304;-0.261657;0.999868;0.517162;-2.82648;6.55782;2.64804;1;0.0896409;-0.10669;-0.0816121;-0.35409;-1.09597;-1.02253;-0.480815;-4.38846;-0.480815;750;987;971;750;1024;204;1024;1024;1024;1;3;0;1900;50;35;0.0166855;0;0;0;0.170318;-0.202712;-0.155063; 
1147;1166;2019/06/20 10:35:01;495.767;346.651;12.9453;495.611;346.176;0;87;1;-0.280047;-1.23757;-1.14598;-0.269128;-1.21313;-1.1167;-0.228212;-0.399171;-0.623933;-0.771563;-5.81411;-4.57873;541.273;333.818;16.7232;542.015;335.112;0;13;1;-0.352565;-0.925959;-3.09193;-0.343662;-0.97379;-3.071892;-0.201514;1.2617;0.720773;-2.50112;8.97639;4.46899;1;0.0849614;-0.117163;-0.0941628;-0.35409;-1.09597;-1.02253;-0.667853;-4.97425;-0.667853;750;1002;966;744;1024;204;1024;1024;1024;1;3;0;1900;50;35;0.0166817;0;0;0;0.161427;-0.22261;-0.178909; 
1148;1167;2019/06/20 10:35:01;496;346.409;12.8225;496.203;345.826;0;88;1;-0.283635;-1.24864;-1.15748;-0.27348;-1.22378;-1.12893;-0.236784;-0.442644;-0.644419;-0.774482;-5.32029;-4.09302;544;331.6;16.586;544.464;331.673;0;14;1;-0.363685;-0.928032;-3.080766;-0.349669;-0.960063;-3.074554;-0.163574;1.43357;0.843621;-0.700071;10.8122;6.85236;1;0.0806093;-0.127815;-0.106397;-0.35409;-1.09597;-1.02253;-0.83626;-5.48394;-0.83626;750;1006;963;744;1024;204;1024;1024;1024;1;3;0;1900;50;35;0.0166855;0;0;0;0.153158;-0.242848;-0.202154; 
1149;1168;2019/06/20 10:35:01;496.759;346.023;12.6695;496.436;345.657;0;89;1;-0.290047;-1.26244;-1.17228;-0.27845;-1.23538;-1.14194;-0.245789;-0.489204;-0.66813;-0.74338;-4.73118;-3.51088;546;328;16.6662;547.322;329.234;0;15;1;-0.367923;-0.914548;-3.079286;-0.355145;-0.946408;-3.075974;-0.158579;1.46556;0.839766;0.443047;11.5392;7.9274;1;0.0756392;-0.139411;-0.119403;-0.35409;-1.09597;-1.02253;-1.02074;-6.03269;-1.02074;750;1007;960;745;1024;204;1024;1024;1024;1;3;0;1900;50;35;0.0166836;0;0;0;0.143714;-0.264882;-0.226865; 
1150;1169;2019/06/20 10:35:01;497.068;346.114;12.5537;497.188;345.345;0;90;1;-0.293955;-1.27439;-1.1829;-0.283102;-1.24708;-1.15423;-0.255363;-0.539069;-0.69196;-0.691993;-4.18313;-2.94275;547.6;324;16.5224;549.375;325.403;0;16;1;-0.375958;-0.912401;-3.064655;-0.361389;-0.936206;-3.072578;-0.186401;1.35848;0.70246;0.940015;10.582;7.28851;1;0.0709879;-0.151115;-0.131694;-0.35409;-1.09597;-1.02253;-1.20486;-6.60951;-1.20486;750;1011;958;746;1024;204;1024;1024;1024;1;3;0;1900;50;35;0.0166836;0;0;0;0.134877;-0.287119;-0.250218; 
1151;1170;2019/06/20 10:35:01;497.524;346.333;12.4884;497.497;345.512;0;91;1;-0.297312;-1.28179;-1.18861;-0.287365;-1.2575;-1.16454;-0.262031;-0.580114;-0.703945;-0.632772;-3.70418;-2.40022;550.5;320.833;16.5055;550.839;321.242;0;17;1;-0.385112;-0.905329;-3.05845;-0.368506;-0.926943;-3.06834;-0.232503;1.19849;0.51004;0.898761;8.28417;5.26836;1;0.0667249;-0.161526;-0.142008;-0.35409;-1.09597;-1.02253;-1.35253;-7.09611;-1.35253;750;1015;956;750;1024;204;1024;1024;1024;1;3;0;1900;50;35;0.0166836;0;0;0;0.126777;-0.3069;-0.269815; 
1152;1171;2019/06/20 10:35:01;498.444;346.247;12.4301;497.95;345.815;0;92;1;-0.302403;-1.28751;-1.19438;-0.291876;-1.2665;-1.17349;-0.266817;-0.603176;-0.69947;-0.573139;-3.25078;-1.86911;553;317.6;16.4067;553.617;317.929;0;18;1;-0.395033;-0.902549;-3.047399;-0.376464;-0.919625;-3.062057;-0.285826;1.01745;0.301043;0.442679;5.04075;2.29741;1;0.0622134;-0.170532;-0.150958;-0.35409;-1.09597;-1.02253;-1.48612;-7.41749;-1.48612;750;1012;955;758;1024;204;1024;1024;1024;1;3;0;1900;50;35;0.0166836;0;0;0;0.118205;-0.32401;-0.286821; 
1153;1172;2019/06/20 10:35:01;498.95;346.625;12.3206;498.874;345.812;0;93;1;-0.307137;-1.30023;-1.20414;-0.296454;-1.27662;-1.18269;-0.269282;-0.615594;-0.683377;-0.507994;-2.81527;-1.359;553;314;16.3105;555.953;314.609;0;19;1;-0.397363;-0.898658;-3.035748;-0.382734;-0.913335;-3.054165;-0.327623;0.852041;0.109791;-0.238308;1.38749;-1.06296;1;0.0576352;-0.180651;-0.160155;-0.35409;-1.09597;-1.02253;-1.59775;-7.67064;-1.59775;750;1006;954;768;1024;204;1024;1024;1024;1;3;0;1900;50;35;0.0166836;0;0;0;0.109507;-0.343236;-0.304294; 
1154;1173;2019/06/20 10:35:01;499.833;347.306;12.2258;499.386;346.276;0;94;1;-0.313124;-1.31264;-1.21196;-0.301455;-1.28743;-1.19147;-0.273356;-0.623668;-0.659936;-0.450937;-2.41252;-0.877404;555.273;309.818;16.2637;555.735;310.946;0;20;1;-0.405481;-0.890512;-3.025942;-0.389558;-0.906488;-3.045698;-0.355969;0.725307;-0.0494337;-0.911784;-1.99767;-4.20637;1;0.0526342;-0.191457;-0.168938;-0.35409;-1.09597;-1.02253;-1.73351;-7.89949;-1.73351;750;1001;952;779;1024;204;1024;1024;1024;1;3;0;1900;50;35;0.0166836;0;0;0;0.100005;-0.363769;-0.320982; 
1155;1174;2019/06/20 10:35:01;500.535;347.831;12.1259;500.286;347.048;0;95;1;-0.318592;-1.32527;-1.22077;-0.306597;-1.29878;-1.20026;-0.276484;-0.627533;-0.62902;-0.393218;-2.00027;-0.37016;557.273;305.818;16.2011;557.82;306.674;0;21;1;-0.413206;-0.883641;-3.015435;-0.396652;-0.899634;-3.036619;-0.379442;0.622092;-0.18692;-1.42963;-4.56908;-6.6264;1;0.0474931;-0.202809;-0.177727;-0.35409;-1.09597;-1.02253;-1.86247;-8.10295;-1.86247;750;994;952;792;1024;204;1024;1024;1024;1;3;0;1900;50;35;0.0166836;0;0;0;0.0902369;-0.385336;-0.33768; 
1156;1175;2019/06/20 10:35:01;500.795;348.685;12.0236;501.009;347.676;0;96;1;-0.322379;-1.33951;-1.22921;-0.311331;-1.311;-1.20894;-0.278694;-0.631907;-0.596063;-0.329161;-1.57114;0.161103;559;302;15.998;559.647;302.593;0;22;1;-0.42384;-0.884897;-2.99641;-0.404809;-0.895213;-3.024557;-0.401168;0.537063;-0.304044;-1.71598;-6.0238;-7.99778;1;0.112509;-0.4361;-0.205355;-0.42384;-0.874897;-1.00359;4.77037;-19.9172;4.77037;750;1154;1137;973;1024;204;1024;1024;1024;1;3;0;1900;50;35;0.0166836;0;0;0;0.213767;-0.82859;-0.390175; 
1157;1176;2019/06/20 10:35:01;501.594;349.438;11.9733;501.289;348.636;0;97;1;-0.327066;-1.34776;-1.23266;-0.316052;-1.32203;-1.21606;-0.281846;-0.636999;-0.563502;-0.276674;-1.16999;0.657854;559.091;298.727;16.0351;561.213;298.738;0;23;1;-0.423144;-0.87433;-2.99315;-0.410309;-0.888948;-3.015135;-0.407742;0.474061;-0.395024;-1.72981;-6.50899;-8.41518;1;0.107092;-0.457696;-0.209212;-0.423144;-0.86433;-1.00685;4.58378;-19.8568;4.58378;750;1119;1134;1020;1024;204;1024;1024;1024;1;3;0;1900;50;35;0.0166855;0;0;0;0.203475;-0.869623;-0.397503; 
1158;1177;2019/06/20 10:35:01;502.062;350;11.9152;502.111;349.495;0;98;1;-0.330623;-1.3563;-1.23738;-0.320423;-1.33231;-1.22246;-0.283179;-0.645165;-0.533762;-0.231385;-0.86978;1.05687;561;295;15.9059;561.151;295.395;0;24;1;-0.43257;-0.871648;-2.97857;-0.416987;-0.883758;-3.004166;-0.406574;0.427759;-0.468346;-1.52039;-6.26175;-8.12355;1;0.112146;-0.470661;-0.201026;-0.43257;-0.861648;-1.02143;4.71575;-19.8155;4.71575;750;1116;1135;1052;1024;204;1024;1024;1024;1;3;0;1900;50;35;0.0166817;0;0;0;0.213078;-0.894256;-0.38195; 
1159;1178;2019/06/20 10:35:01;502.923;351.385;11.8668;502.594;350.165;0;99;1;-0.335588;-1.3667;-1.23923;-0.324973;-1.34263;-1.22749;-0.283865;-0.650855;-0.499281;-0.197104;-0.662769;1.36976;563.167;290.5;15.7671;562.884;291.636;0;25;1;-0.443235;-0.867406;-2.96178;-0.424861;-0.878852;-2.99145;-0.412285;0.394445;-0.531612;-1.25054;-5.58558;-7.43714;1;0.118262;-0.485221;-0.189267;-0.443235;-0.857406;-1.03822;4.93583;-19.906;4.93583;750;1148;1135;1075;1024;204;1024;1024;1024;1;3;0;1900;50;35;0.0166836;0;0;0;0.224698;-0.921919;-0.359607; 
1160;1179;2019/06/20 10:35:01;503.254;352.136;11.7954;503.467;351.658;0;100;1;-0.339021;-1.37763;-1.24499;-0.329187;-1.35313;-1.23274;-0.281131;-0.653043;-0.464474;-0.149332;-0.51504;1.6029;562.25;287.75;15.7995;564.935;287.097;0;26;1;-0.43943;-0.85836;-2.95915;-0.429232;-0.872705;-2.98176;-0.405904;0.371661;-0.574453;-0.949858;-4.76447;-6.56019;1;0.110243;-0.504767;-0.19189;-0.43943;-0.84836;-1.04085;4.60533;-20.089;4.60533;750;1186;1123;1077;1024;204;1024;1024;1024;1;3;0;1900;50;35;0.0166855;0;0;0;0.209462;-0.959058;-0.364592; 
1161;1180;2019/06/20 10:35:01;504.09;353.313;11.7594;503.803;352.513;0;101;1;-0.343603;-1.38603;-1.24607;-0.333512;-1.363;-1.23674;-0.276229;-0.648438;-0.424448;-0.0885813;-0.39256;1.77918;564.727;284.182;15.8155;563.907;284.299;0;27;1;-0.446801;-0.84807;-2.95404;-0.434503;-0.865314;-2.97344;-0.394788;0.360134;-0.597108;-0.631233;-3.90543;-5.57517;1;0.113289;-0.524928;-0.190779;-0.446801;-0.83807;-1.04596;4.59545;-20.3164;4.59545;750;1231;1119;1074;1024;204;1024;1024;1024;1;3;0;1900;50;35;0.0166836;0;0;0;0.215249;-0.997363;-0.362479; 
1162;1181;2019/06/20 10:35:01;504.928;354.087;11.7679;504.639;353.789;0;102;1;-0.34691;-1.38778;-1.24338;-0.337531;-1.37043;-1.23873;-0.270429;-0.626559;-0.373684;-0.0201226;-0.214165;1.95611;565.667;279.833;15.727;566.274;280.713;0;28;1;-0.452297;-0.841301;-2.9406;-0.439841;-0.85811;-2.96359;-0.376857;0.364337;-0.60188;-0.281595;-3.03345;-4.53522;1;0.114766;-0.539131;-0.179324;-0.452297;-0.831301;-1.0594;4.52416;-20.4579;4.52416;750;1270;1111;1075;1024;204;1024;1024;1024;1;3;0;1900;50;35;0.0166836;0;0;0;0.218055;-1.02435;-0.340716; 
1163;1182;2019/06/20 10:35:01;505.884;355.072;11.7141;505.49;354.652;0;103;1;-0.352576;-1.39766;-1.24678;-0.342045;-1.3786;-1.24114;-0.266125;-0.602;-0.324449;0.0507453;0.0113545;2.12891;566;277;15.6268;567.105;276.367;0;29;1;-0.456262;-0.839126;-2.92885;-0.444767;-0.852415;-2.95317;-0.363807;0.364586;-0.608751;0.00660379;-2.25753;-3.57517;1;0.114217;-0.549474;-0.169991;-0.456262;-0.829126;-1.07115;4.3866;-20.4704;4.3866;750;1301;1104;1076;1024;204;1024;1024;1024;1;3;0;1900;50;35;0.0166836;0;0;0;0.217012;-1.044;-0.322983; 
1164;1183;2019/06/20 10:35:01;506.74;355.863;11.6737;506.464;355.712;0;104;1;-0.357455;-1.40533;-1.24925;-0.346668;-1.38662;-1.24358;-0.264546;-0.578211;-0.279065;0.104901;0.274352;2.29508;566.4;274;15.5188;567.35;273.543;0;30;1;-0.460723;-0.836894;-2.91611;-0.449554;-0.847759;-2.94205;-0.348416;0.3626;-0.613459;0.236353;-1.61488;-2.72496;1;0.114055;-0.559724;-0.159686;-0.460723;-0.826894;-1.08389;4.22692;-20.4658;4.22692;750;1324;1098;1079;1024;204;1024;1024;1024;1;3;0;1900;50;35;0.0166836;0;0;0;0.216704;-1.06348;-0.303404; 
1165;1184;2019/06/20 10:35:01;507.12;356.693;11.6842;507.346;356.569;0;105;1;-0.358757;-1.40703;-1.24618;-0.350295;-1.39274;-1.24436;-0.259911;-0.547177;-0.234846;0.158659;0.578893;2.4337;567.091;270.364;15.5153;567.651;270.572;0;31;1;-0.463047;-0.827295;-2.90946;-0.453602;-0.841619;-2.93227;-0.323893;0.366337;-0.604534;0.495015;-1.08124;-1.92636;1;0.112753;-0.575446;-0.153821;-0.463047;-0.817295;-1.09054;3.99712;-20.526;3.99712;750;1344;1089;1077;1024;204;1024;1024;1024;1;3;0;1900;50;35;0.0166836;0;0;0;0.21423;-1.09335;-0.29226; 
1166;1185;2019/06/20 10:35:01;508.622;357.757;11.7022;507.748;357.446;0;106;1;-0.364609;-1.40866;-1.24178;-0.354589;-1.39752;-1.24358;-0.25745;-0.505683;-0.184247;0.189823;0.936178;2.57999;568.571;268;15.4979;568.229;266.962;0;32;1;-0.468336;-0.82186;-2.90407;-0.458022;-0.835692;-2.92381;-0.309379;0.367704;-0.594279;0.682719;-0.664557;-1.23504;1;0.113747;-0.585657;-0.147652;-0.468336;-0.81186;-1.09593;3.88042;-20.3943;3.88042;750;1352;1084;1078;1024;204;1024;1024;1024;1;3;0;1900;50;35;0.0166836;0;0;0;0.216119;-1.11275;-0.280539; 
1167;1186;2019/06/20 10:35:01;509.307;358.427;11.6918;509.286;358.549;0;107;1;-0.367856;-1.4123;-1.24132;-0.358569;-1.40195;-1.24291;-0.254597;-0.459071;-0.135195;0.200333;1.31841;2.70383;568.667;265.778;15.4048;569.644;264.637;0;33;1;-0.471473;-0.820801;-2.8935;-0.462057;-0.831224;-2.91472;-0.295735;0.356843;-0.591228;0.805442;-0.411885;-0.717531;1;0.112904;-0.591151;-0.13641;-0.471473;-0.810801;-1.1065;3.75194;-20.049;3.75194;750;1351;1079;1086;1024;204;1024;1024;1024;1;3;0;1900;50;35;0.0166836;0;0;0;0.214518;-1.12319;-0.259179; 
1168;1187;2019/06/20 10:35:01;510.583;359;11.692;510.01;359.241;0;108;1;-0.373298;-1.41432;-1.23996;-0.362988;-1.40566;-1.24202;-0.254481;-0.416225;-0.0942708;0.183929;1.63153;2.73882;569.273;263.818;15.3743;569.657;262.497;0;34;1;-0.474377;-0.81711;-2.88782;-0.465753;-0.82699;-2.90665;-0.280984;0.33846;-0.582261;0.866367;-0.350534;-0.352124;1;0.111389;-0.598554;-0.129844;-0.474377;-0.80711;-1.11218;3.54053;-19.6969;3.54053;750;1344;1073;1089;1024;204;1024;1024;1024;1;3;0;1900;50;35;0.0166836;0;0;0;0.211639;-1.13725;-0.246704; 
1169;1188;2019/06/20 10:35:01;512.472;359.528;11.6892;511.328;359.823;0;109;1;-0.381454;-1.41656;-1.23903;-0.368528;-1.40893;-1.24112;-0.258512;-0.370941;-0.0564768;0.140777;1.90222;2.71409;571;262;15.2064;570.179;260.654;0;35;1;-0.485283;-0.82114;-2.87228;-0.471612;-0.825235;-2.89634;-0.275861;0.311685;-0.57644;0.871248;-0.421708;-0.0821611;1;0.116755;-0.597792;-0.113399;-0.485283;-0.81114;-1.12772;3.59384;-19.1358;3.59384;750;1328;1074;1100;1024;204;1024;1024;1024;1;3;0;1900;50;35;0.0166836;0;0;0;0.221835;-1.1358;-0.215458; 
1170;1189;2019/06/20 10:35:01;513.662;359.662;11.7173;513.274;360.344;0;110;1;-0.385606;-1.41364;-1.23574;-0.373651;-1.41034;-1.23951;-0.26293;-0.317371;-0.0176348;0.0909249;2.18364;2.67312;570.4;260;15.0921;571.847;259.004;0;36;1;-0.486975;-0.821828;-2.86011;-0.476221;-0.824213;-2.88547;-0.272076;0.281099;-0.571952;0.827798;-0.578699;0.116561;1;0.113324;-0.598516;-0.0996201;-0.486975;-0.811828;-1.13989;3.43438;-18.503;3.43438;750;1305;1072;1110;1024;204;1024;1024;1024;1;3;0;1900;50;35;0.0166836;0;0;0;0.215316;-1.13718;-0.189278; 
1171;1190;2019/06/20 10:35:01;515.315;359.644;11.7038;514.532;360.456;0;111;1;-0.393098;-1.4152;-1.23721;-0.379485;-1.4118;-1.23882;-0.274399;-0.266587;0.0115477;-0.00334;2.43138;2.58843;572;258;14.9316;571.201;257.173;0;37;1;-0.497556;-0.825068;-2.8442;-0.482621;-0.824469;-2.87309;-0.279204;0.237189;-0.579666;0.67525;-0.863277;0.169306;1;0.118071;-0.596734;-0.0830195;-0.497556;-0.815068;-1.1558;3.52584;-17.7344;3.52584;750;1276;1076;1126;1024;204;1024;1024;1024;1;3;0;1900;50;35;0.0166855;0;0;0;0.224334;-1.13379;-0.157737; 
1172;1191;2019/06/20 10:35:01;517.041;359.479;11.7222;516.271;360.39;0;112;1;-0.399827;-1.41239;-1.23565;-0.385588;-1.41198;-1.23787;-0.288507;-0.21774;0.0297737;-0.126102;2.60941;2.40825;573;255.6;14.785;572.768;255.366;0;38;1;-0.505863;-0.826469;-2.82831;-0.489594;-0.825069;-2.85965;-0.293678;0.184758;-0.604164;0.467887;-1.24899;0.0620843;1;0.120275;-0.595509;-0.0661747;-0.505863;-0.816469;-1.17169;3.60568;-16.9231;3.60568;750;1245;1080;1144;1024;204;1024;1024;1024;1;3;0;1900;50;35;0.0166836;0;0;0;0.228522;-1.13147;-0.125732; 
1173;1192;2019/06/20 10:35:02;518.816;358.711;11.7561;518.088;360.153;0;113;1;-0.406206;-1.40558;-1.23387;-0.391773;-1.41006;-1.23667;-0.305786;-0.163042;0.0427889;-0.280206;2.74856;2.15617;572.857;253.429;14.6951;573.742;253.145;0;39;1;-0.508473;-0.825358;-2.8171;-0.495258;-0.825156;-2.84689;-0.308873;0.135105;-0.633552;0.228233;-1.63545;-0.131872;1;0.1167;-0.594702;-0.0537661;-0.508473;-0.815358;-1.1829;3.49122;-16.0943;3.49122;750;1213;1080;1161;1024;204;1024;1024;1024;1;3;0;1900;50;35;0.0166817;0;0;0;0.22173;-1.12993;-0.102156; 
1174;1193;2019/06/20 10:35:02;521.151;358.055;11.7743;519.969;359.28;0;114;1;-0.415476;-1.4011;-1.23349;-0.398884;-1.40737;-1.23571;-0.326908;-0.104647;0.0508701;-0.457535;2.89416;1.87366;572.909;251.273;14.6825;573.58;251.117;0;40;1;-0.509084;-0.819933;-2.81207;-0.499406;-0.823589;-2.83644;-0.319794;0.094653;-0.660671;-0.0181401;-1.95549;-0.392437;1;0.1102;-0.597438;-0.0477889;-0.509084;-0.809933;-1.18793;3.16354;-15.3669;3.16354;750;1185;1075;1172;1024;204;1024;1024;1024;1;3;0;1900;50;35;0.0166855;0;0;0;0.209381;-1.13513;-0.0907988; 
1175;1194;2019/06/20 10:35:02;523.421;356.947;11.8214;522.423;358.493;0;115;1;-0.423404;-1.3916;-1.23114;-0.40624;-1.40264;-1.23434;-0.346838;-0.0376436;0.0576223;-0.627461;3.06831;1.58012;573;248.4;14.5446;573.607;249.062;0;41;1;-0.514224;-0.819462;-2.79541;-0.503851;-0.822351;-2.82413;-0.3207;0.068316;-0.684922;-0.190055;-2.14577;-0.668944;1;0.107984;-0.593177;-0.029752;-0.514224;-0.809462;-1.20459;2.92197;-14.5704;2.92197;750;1159;1071;1190;1024;204;1024;1024;1024;1;3;0;1900;50;35;0.0166836;0;0;0;0.20517;-1.12704;-0.0565288; 
1176;1195;2019/06/20 10:35:02;525.945;355.781;11.8382;524.817;357.226;0;116;1;-0.433443;-1.38551;-1.23208;-0.414401;-1.3975;-1.23366;-0.370934;0.0287295;0.0579304;-0.80805;3.22396;1.25002;572.727;245.818;14.4695;573.635;246.267;0;42;1;-0.515952;-0.816266;-2.78428;-0.507482;-0.820526;-2.81218;-0.317333;0.0557237;-0.703818;-0.294872;-2.18803;-0.928285;1;0.101552;-0.591236;-0.0179462;-0.515952;-0.806266;-1.21572;2.43191;-13.9274;2.43191;750;1142;1059;1200;1024;204;1024;1024;1024;1;3;0;1900;50;35;0.0166836;0;0;0;0.192948;-1.12335;-0.0340979; 
1177;1196;2019/06/20 10:35:02;528.132;354.211;11.8499;527.474;355.88;0;117;1;-0.442222;-1.37861;-1.23449;-0.422747;-1.39184;-1.23391;-0.395434;0.0970217;0.0543702;-0.96848;3.38734;0.92113;572.8;243.6;14.4362;573.306;243.712;0;43;1;-0.517395;-0.811735;-2.77728;-0.510455;-0.817888;-2.80171;-0.301623;0.0597313;-0.707526;-0.266511;-2.02193;-1.06789;1;0.0946473;-0.5901;-0.0111884;-0.517395;-0.801735;-1.22272;1.81367;-13.4087;1.81367;750;1132;1042;1200;1024;204;1024;1024;1024;1;3;0;1900;50;35;0.0166836;0;0;0;0.17983;-1.12119;-0.0212579; 
1178;1197;2019/06/20 10:35:02;531.077;352.718;11.8901;529.795;354.111;0;118;1;-0.453086;-1.36871;-1.23374;-0.431849;-1.3849;-1.23386;-0.422118;0.166432;0.0486372;-1.11499;3.56753;0.628056;572.25;241.75;14.2938;573.3;241.487;0;44;1;-0.520628;-0.814416;-2.76156;-0.513507;-0.816847;-2.78966;-0.276531;0.0686958;-0.704194;-0.0913872;-1.67694;-1.04045;1;0.0887789;-0.58048;0.00457823;-0.520628;-0.804416;-1.23844;1.11324;-12.789;1.11324;750;1125;1020;1202;1024;204;1024;1024;1024;1;3;0;1900;50;35;0.0166836;0;0;0;0.16868;-1.10291;0.00869864; 
1179;1198;2019/06/20 10:35:02;533.531;350.593;11.9;532.889;352.408;0;119;1;-0.463;-1.36011;-1.2376;-0.441194;-1.37746;-1.23498;-0.450751;0.23012;0.0359226;-1.24826;3.71155;0.349396;572;239.111;14.1408;572.643;239.642;0;45;1;-0.525379;-0.815438;-2.74306;-0.517069;-0.816424;-2.77568;-0.253073;0.0761083;-0.707041;0.168135;-1.24191;-0.917924;1;0.0841851;-0.572023;0.0219584;-0.525379;-0.805438;-1.25694;0.455498;-12.2117;0.455498;750;1123;998;1203;1024;204;1024;1024;1024;1;3;0;1900;50;35;0.0166836;0;0;0;0.159952;-1.08684;0.0417209; 
1180;1199;2019/06/20 10:35:02;536.293;348.053;11.9558;535.487;350.065;0;120;1;-0.472366;-1.34489;-1.23762;-0.450546;-1.36769;-1.23577;-0.476888;0.296634;0.0213225;-1.34827;3.83042;0.0915673;571.429;238;14.109;572.283;237.005;0;46;1;-0.524543;-0.813988;-2.73807;-0.519311;-0.815693;-2.7644;-0.231385;0.0772153;-0.712105;0.45416;-0.814823;-0.756284;1;0.0739971;-0.563702;0.026153;-0.524543;-0.803988;-1.26193;-0.328964;-11.5707;-0.328964;750;1116;974;1196;1024;204;1024;1024;1024;1;3;0;1900;50;35;0.0166836;0;0;0;0.140594;-1.07103;0.0496906; 
1181;1200;2019/06/20 10:35:02;539.44;345.307;12.008;538.393;347.289;0;121;1;-0.483392;-1.3295;-1.2385;-0.4604;-1.35623;-1.23659;-0.502552;0.363416;0.00380471;-1.43118;3.90087;-0.160112;570.667;236.222;13.8629;571.607;235.888;0;47;1;-0.531114;-0.823087;-2.71216;-0.522852;-0.817912;-2.74873;-0.214757;0.0640686;-0.728576;0.695837;-0.505866;-0.628208;1;0.0707145;-0.543146;0.0512466;-0.531114;-0.813087;-1.28784;-0.839679;-10.594;-0.839679;750;1100;955;1206;1024;204;1024;1024;1024;1;3;0;1900;50;35;0.0166836;0;0;0;0.134358;-1.03198;0.0973686; 
